Station Number,Station Name,Station Name,Station Name,Station Name of Snow,Station Name of Snow,Station Name of Snow,Latitude_Precipitation,Longitude_Precipitation,Altitude_Precipitation,Height of Anemometer,,,Latitude_Snow,Longitude_Snow,Altitude_Snow,Start Date,End Date
11001,宗谷岬　　　　　　　,ｿｳﾔﾐｻｷ         ,SOYAMISAKI                    ,　　　　　　　　　　,               ,                              ,45.520,141.935,0026,010.1,     ,      ,      ,       ,    ,2021-03-18,9999-99-99
11016,稚内　　　　　　　　,ﾜｯｶﾅｲ          ,WAKKANAI                      ,稚内　　　　　　　　,ﾜｯｶﾅｲ          ,WAKKANAI                      ,45.415,141.678,0003,024.1,     ,      ,45.415,141.678,0003,2021-03-18,9999-99-99
11046,礼文　　　　　　　　,ﾚﾌﾞﾝ           ,REBUN                         ,　　　　　　　　　　,               ,                              ,45.305,141.045,0065,009.9,     ,      ,      ,       ,    ,2021-03-18,9999-99-99
11076,浜鬼志別　　　　　　,ﾊﾏｵﾆｼﾍﾞﾂ       ,HAMAONISHIBETSU               ,浜鬼志別　　　　　　,ﾊﾏｵﾆｼﾍﾞﾂ       ,HAMAONISHIBETSU               ,45.335,142.170,0013,009.9,     ,      ,45.335,142.170,0013,2021-03-18,9999-99-99
11151,沓形　　　　　　　　,ｸﾂｶﾞﾀ          ,KUTSUGATA                     ,　　　　　　　　　　,               ,                              ,45.178,141.138,0014,009.9,     ,      ,      ,       ,    ,2021-03-18,9999-99-99
11176,豊富　　　　　　　　,ﾄﾖﾄﾐ           ,TOYOTOMI                      ,豊富　　　　　　　　,ﾄﾖﾄﾐ           ,TOYOTOMI                      ,45.102,141.780,0014,010.0,     ,      ,45.102,141.780,0014,2021-03-18,9999-99-99
11206,浜頓別　　　　　　　,ﾊﾏﾄﾝﾍﾞﾂ        ,HAMATOMBETSU                  ,　　　　　　　　　　,               ,                              ,45.125,142.350,0018,010.0,     ,      ,      ,       ,    ,2021-03-18,9999-99-99
11291,北見枝幸　　　　　　,ｷﾀﾐｴｻｼ         ,KITAMI-ESASHI                 ,北見枝幸　　　　　　,ｷﾀﾐｴｻｼ         ,KITAMI-ESASHI                 ,44.940,142.585,0007,017.2,     ,      ,44.940,142.585,0007,2021-03-18,9999-99-99
12011,中川　　　　　　　　,ﾅｶｶﾞﾜ          ,NAKAGAWA                      ,　　　　　　　　　　,               ,                              ,44.828,142.077,0022,010.0,     ,      ,      ,       ,    ,2021-03-18,9999-99-99
12041,音威子府　　　　　　,ｵﾄｲﾈｯﾌﾟ        ,OTOINEPPU                     ,音威子府　　　　　　,ｵﾄｲﾈｯﾌﾟ        ,OTOINEPPU                     ,44.727,142.265,0040,009.9,     ,      ,44.727,142.265,0040,2021-03-18,9999-99-99
12181,名寄　　　　　　　　,ﾅﾖﾛ            ,NAYORO                        ,名寄　　　　　　　　,ﾅﾖﾛ            ,NAYORO                        ,44.370,142.457,0089,009.9,     ,      ,44.370,142.457,0089,2021-03-18,9999-99-99
12396,比布　　　　　　　　,ﾋﾟｯﾌﾟ          ,PIPPU                         ,　　　　　　　　　　,               ,                              ,43.870,142.470,0164,010.0,     ,      ,      ,       ,    ,2021-03-18,9999-99-99
12442,旭川　　　　　　　　,ｱｻﾋｶﾜ          ,ASAHIKAWA                     ,旭川　　　　　　　　,ｱｻﾋｶﾜ          ,ASAHIKAWA                     ,43.757,142.372,0120,047.0,     ,      ,43.757,142.372,0120,2021-03-18,9999-99-99
12451,東川　　　　　　　　,ﾋｶﾞｼｶﾜ         ,HIGASHIKAWA                   ,　　　　　　　　　　,               ,                              ,43.702,142.508,0215,010.0,     ,      ,      ,       ,    ,2021-03-18,9999-99-99
12551,美瑛　　　　　　　　,ﾋﾞｴｲ           ,BIEI                          ,美瑛　　　　　　　　,ﾋﾞｴｲ           ,BIEI                          ,43.588,142.493,0250,010.0,     ,      ,43.588,142.493,0250,2021-03-18,9999-99-99
12626,富良野　　　　　　　,ﾌﾗﾉ            ,FURANO                        ,富良野　　　　　　　,ﾌﾗﾉ            ,FURANO                        ,43.333,142.400,0174,009.9,     ,      ,43.333,142.400,0174,2021-03-18,9999-99-99
12632,麓郷　　　　　　　　,ﾛｸｺﾞｳ          ,ROKUGO                        ,　　　　　　　　　　,               ,                              ,43.302,142.522,0315,010.0,     ,      ,      ,       ,    ,2021-03-18,9999-99-99
12691,幾寅　　　　　　　　,ｲｸﾄﾗ           ,IKUTORA                       ,幾寅　　　　　　　　,ｲｸﾄﾗ           ,IKUTORA                       ,43.168,142.568,0350,009.9,     ,      ,43.168,142.568,0350,2021-03-18,9999-99-99
13061,天塩　　　　　　　　,ﾃｼｵ            ,TESHIO                        ,天塩　　　　　　　　,ﾃｼｵ            ,TESHIO                        ,44.893,141.762,0009,009.9,     ,      ,44.893,141.762,0009,2021-03-18,9999-99-99
13121,初山別　　　　　　　,ｼｮｻﾝﾍﾞﾂ        ,SHOSAMBETSU                   ,初山別　　　　　　　,ｼｮｻﾝﾍﾞﾂ        ,SHOSAMBETSU                   ,44.523,141.770,0027,009.9,     ,      ,44.523,141.770,0027,2021-03-18,9999-99-99
13146,焼尻　　　　　　　　,ﾔｷﾞｼﾘ          ,YAGISHIRI                     ,　　　　　　　　　　,               ,                              ,44.428,141.422,0038,010.0,     ,      ,      ,       ,    ,2021-03-18,9999-99-99
13181,羽幌　　　　　　　　,ﾊﾎﾞﾛ           ,HABORO                        ,羽幌　　　　　　　　,ﾊﾎﾞﾛ           ,HABORO                        ,44.363,141.700,0008,021.6,     ,      ,44.363,141.700,0008,2021-03-18,9999-99-99
13277,留萌　　　　　　　　,ﾙﾓｲ            ,RUMOI                         ,留萌　　　　　　　　,ﾙﾓｲ            ,RUMOI                         ,43.945,141.632,0024,016.3,     ,      ,43.945,141.632,0024,2021-03-18,9999-99-99
13311,増毛　　　　　　　　,ﾏｼｹ            ,MASHIKE                       ,　　　　　　　　　　,               ,                              ,43.848,141.510,0020,010.0,     ,      ,      ,       ,    ,2021-03-18,9999-99-99
14026,浜益　　　　　　　　,ﾊﾏﾏｽ           ,HAMAMASU                      ,　　　　　　　　　　,               ,                              ,43.582,141.387,0003,009.9,     ,      ,      ,       ,    ,2021-03-18,9999-99-99
14116,山口　　　　　　　　,ﾔﾏｸﾞﾁ          ,YAMAGUCHI                     ,　　　　　　　　　　,               ,                              ,43.148,141.222,0005,010.0,     ,      ,      ,       ,    ,2021-03-18,9999-99-99
14121,石狩　　　　　　　　,ｲｼｶﾘ           ,ISHIKARI                      ,石狩　　　　　　　　,ｲｼｶﾘ           ,ISHIKARI                      ,43.193,141.370,0005,010.1,     ,      ,43.193,141.370,0005,2021-03-18,9999-99-99
14163,札幌　　　　　　　　,ｻｯﾎﾟﾛ          ,SAPPORO                       ,札幌　　　　　　　　,ｻｯﾎﾟﾛ          ,SAPPORO                       ,43.060,141.328,0017,059.7,     ,      ,43.060,141.328,0017,2021-03-18,9999-99-99
14206,恵庭島松　　　　　　,ｴﾆﾜｼﾏﾏﾂ        ,ENIWA-SHIMAMATSU              ,恵庭島松　　　　　　,ｴﾆﾜｼﾏﾏﾂ        ,ENIWA-SHIMAMATSU              ,42.927,141.565,0030,009.9,     ,      ,42.927,141.565,0030,2021-03-18,9999-99-99
14286,支笏湖畔　　　　　　,ｼｺﾂｺﾊﾝ         ,SHIKOTSUKOHAN                 ,　　　　　　　　　　,               ,                              ,42.772,141.407,0290,010.0,     ,      ,      ,       ,    ,2021-03-18,9999-99-99
15041,朱鞠内　　　　　　　,ｼｭﾏﾘﾅｲ         ,SHUMARINAI                    ,朱鞠内　　　　　　　,ｼｭﾏﾘﾅｲ         ,SHUMARINAI                    ,44.282,142.162,0255,009.9,     ,      ,44.282,142.162,0255,2021-03-18,9999-99-99
15116,石狩沼田　　　　　　,ｲｼｶﾘﾇﾏﾀ        ,ISHIKARINUMATA                ,石狩沼田　　　　　　,ｲｼｶﾘﾇﾏﾀ        ,ISHIKARINUMATA                ,43.815,141.927,0063,009.9,     ,      ,43.815,141.927,0063,2021-03-18,9999-99-99
15156,秩父別　　　　　　　,ﾁｯﾌﾟﾍﾞﾂ        ,CHIPPUBETSU                   ,秩父別　　　　　　　,ﾁｯﾌﾟﾍﾞﾂ        ,CHIPPUBETSU                   ,43.780,141.962,0051,007.9,     ,      ,43.780,141.962,0051,2022-10-31,9999-99-99
15231,空知吉野　　　　　　,ｿﾗﾁﾖｼﾉ         ,SORACHIYOSHINO                ,　　　　　　　　　　,               ,                              ,43.595,141.732,0100,010.0,     ,      ,      ,       ,    ,2022-10-31,9999-99-99
15241,滝川　　　　　　　　,ﾀｷｶﾜ           ,TAKIKAWA                      ,滝川　　　　　　　　,ﾀｷｶﾜ           ,TAKIKAWA                      ,43.570,141.938,0050,009.9,     ,      ,43.570,141.938,0050,2022-10-31,9999-99-99
15356,岩見沢　　　　　　　,ｲﾜﾐｻﾞﾜ         ,IWAMIZAWA                     ,岩見沢　　　　　　　,ｲﾜﾐｻﾞﾜ         ,IWAMIZAWA                     ,43.212,141.785,0042,022.1,     ,      ,43.212,141.785,0042,2022-10-31,9999-99-99
15431,長沼　　　　　　　　,ﾅｶﾞﾇﾏ          ,NAGANUMA                      ,　　　　　　　　　　,               ,                              ,43.012,141.693,0013,010.1,     ,      ,      ,       ,    ,2022-10-31,9999-99-99
15442,夕張　　　　　　　　,ﾕｳﾊﾞﾘ          ,YUBARI                        ,夕張　　　　　　　　,ﾕｳﾊﾞﾘ          ,YUBARI                        ,43.038,141.957,0293,010.1,     ,      ,43.038,141.957,0293,2022-10-31,9999-99-99
16026,美国　　　　　　　　,ﾋﾞｸﾆ           ,BIKUNI                        ,　　　　　　　　　　,               ,                              ,43.272,140.563,0075,010.0,     ,      ,      ,       ,    ,2022-10-31,9999-99-99
16061,神恵内　　　　　　　,ｶﾓｴﾅｲ          ,KAMOENAI                      ,　　　　　　　　　　,               ,                              ,43.145,140.423,0050,009.9,     ,      ,      ,       ,    ,2022-10-31,9999-99-99
16076,余市　　　　　　　　,ﾖｲﾁ            ,YOICHI                        ,余市　　　　　　　　,ﾖｲﾁ            ,YOICHI                        ,43.182,140.758,0020,010.0,     ,      ,43.182,140.758,0020,2022-10-31,9999-99-99
16091,小樽　　　　　　　　,ｵﾀﾙ            ,OTARU                         ,小樽　　　　　　　　,ｵﾀﾙ            ,OTARU                         ,43.182,141.015,0025,013.6,     ,      ,43.182,141.015,0025,2022-10-31,9999-99-99
16156,共和　　　　　　　　,ｷｮｳﾜ           ,KYOWA                         ,共和　　　　　　　　,ｷｮｳﾜ           ,KYOWA                         ,42.980,140.603,0015,010.0,     ,      ,42.980,140.603,0015,2022-10-31,9999-99-99
16217,倶知安　　　　　　　,ｸｯﾁｬﾝ          ,KUTCHAN                       ,倶知安　　　　　　　,ｸｯﾁｬﾝ          ,KUTCHAN                       ,42.900,140.757,0176,030.8,     ,      ,42.900,140.757,0176,2022-10-31,9999-99-99
16252,寿都　　　　　　　　,ｽｯﾂ            ,SUTTSU                        ,寿都　　　　　　　　,ｽｯﾂ            ,SUTTSU                        ,42.795,140.223,0033,017.6,     ,      ,42.795,140.223,0033,2022-10-31,9999-99-99
17036,雄武　　　　　　　　,ｵｳﾑ            ,OMU                           ,雄武　　　　　　　　,ｵｳﾑ            ,OMU                           ,44.580,142.963,0014,016.6,     ,      ,44.580,142.963,0014,2022-10-31,9999-99-99
17076,興部　　　　　　　　,ｵｺｯﾍﾟ          ,OKOPPE                        ,　　　　　　　　　　,               ,                              ,44.470,143.108,0008,009.9,     ,      ,      ,       ,    ,2022-10-31,9999-99-99
17112,紋別　　　　　　　　,ﾓﾝﾍﾞﾂ          ,MOMBETSU                      ,紋別　　　　　　　　,ﾓﾝﾍﾞﾂ          ,MOMBETSU                      ,44.345,143.355,0016,013.6,     ,      ,44.345,143.355,0016,2022-10-31,9999-99-99
17246,常呂　　　　　　　　,ﾄｺﾛ            ,TOKORO                        ,　　　　　　　　　　,               ,                              ,44.115,144.037,0003,010.0,     ,      ,      ,       ,    ,2022-10-31,9999-99-99
17306,遠軽　　　　　　　　,ｴﾝｶﾞﾙ          ,ENGARU                        ,遠軽　　　　　　　　,ｴﾝｶﾞﾙ          ,ENGARU                        ,44.053,143.540,0080,010.0,     ,      ,44.053,143.540,0080,2022-10-31,9999-99-99
17341,網走　　　　　　　　,ｱﾊﾞｼﾘ          ,ABASHIRI                      ,網走　　　　　　　　,ｱﾊﾞｼﾘ          ,ABASHIRI                      ,44.017,144.278,0038,020.0,     ,      ,44.017,144.278,0038,2022-10-31,9999-99-99
17501,生田原　　　　　　　,ｲｸﾀﾊﾗ          ,IKUTAHARA                     ,　　　　　　　　　　,               ,                              ,43.917,143.532,0199,010.0,     ,      ,      ,       ,    ,2022-10-31,9999-99-99
17521,北見　　　　　　　　,ｷﾀﾐ            ,KITAMI                        ,北見　　　　　　　　,ｷﾀﾐ            ,KITAMI                        ,43.777,143.842,0104,010.1,     ,      ,43.777,143.842,0104,2022-10-31,9999-99-99
17546,小清水　　　　　　　,ｺｼﾐｽﾞ          ,KOSHIMIZU                     ,　　　　　　　　　　,               ,                              ,43.842,144.485,0052,010.0,     ,      ,      ,       ,    ,2022-10-31,9999-99-99
17596,留辺蘂　　　　　　　,ﾙﾍﾞｼﾍﾞ         ,RUBESHIBE                     ,留辺蘂　　　　　　　,ﾙﾍﾞｼﾍﾞ         ,RUBESHIBE                     ,43.742,143.450,0325,010.0,     ,      ,43.742,143.450,0325,2022-10-31,9999-99-99
17607,境野　　　　　　　　,ｻｶｲﾉ           ,SAKAINO                       ,　　　　　　　　　　,               ,                              ,43.707,143.643,0184,010.0,     ,      ,      ,       ,    ,2022-10-31,9999-99-99
17631,美幌　　　　　　　　,ﾋﾞﾎﾛ           ,BIHORO                        ,　　　　　　　　　　,               ,                              ,43.770,144.172,0060,010.1,     ,      ,      ,       ,    ,2022-10-31,9999-99-99
18038,羅臼　　　　　　　　,ﾗｳｽ            ,RAUSU                         ,羅臼　　　　　　　　,ﾗｳｽ            ,RAUSU                         ,44.023,145.187,0015,009.9,     ,      ,44.023,145.187,0015,2022-10-31,9999-99-99
18136,標津　　　　　　　　,ｼﾍﾞﾂ           ,SHIBETSU                      ,　　　　　　　　　　,               ,                              ,43.662,145.132,0003,009.9,     ,      ,      ,       ,    ,2022-10-31,9999-99-99
18171,中標津　　　　　　　,ﾅｶｼﾍﾞﾂ         ,NAKASHIBETSU                  ,中標津　　　　　　　,ﾅｶｼﾍﾞﾂ         ,NAKASHIBETSU                  ,43.543,144.978,0050,010.1,     ,      ,43.543,144.978,0050,2022-10-31,9999-99-99
18256,別海　　　　　　　　,ﾍﾞﾂｶｲ          ,BETSUKAI                      ,別海　　　　　　　　,ﾍﾞﾂｶｲ          ,BETSUKAI                      ,43.382,145.118,0023,009.9,     ,      ,43.382,145.118,0023,2022-10-31,9999-99-99
18273,根室　　　　　　　　,ﾈﾑﾛ            ,NEMURO                        ,根室　　　　　　　　,ﾈﾑﾛ            ,NEMURO                        ,43.330,145.585,0025,029.2,     ,      ,43.330,145.585,0025,2022-10-31,9999-99-99
18281,納沙布　　　　　　　,ﾉｻｯﾌﾟ          ,NOSAPPU                       ,　　　　　　　　　　,               ,                              ,43.393,145.758,0012,009.9,     ,      ,      ,       ,    ,2022-10-31,9999-99-99
18311,厚床　　　　　　　　,ｱｯﾄｺ           ,ATTOKO                        ,厚床　　　　　　　　,ｱｯﾄｺ           ,ATTOKO                        ,43.222,145.227,0041,009.9,     ,      ,43.222,145.227,0041,2022-10-31,9999-99-99
19021,川湯　　　　　　　　,ｶﾜﾕ            ,KAWAYU                        ,川湯　　　　　　　　,ｶﾜﾕ            ,KAWAYU                        ,43.617,144.457,0158,009.5,     ,      ,43.617,144.457,0158,2022-10-31,9999-99-99
19051,弟子屈　　　　　　　,ﾃｼｶｶﾞ          ,TESHIKAGA                     ,　　　　　　　　　　,               ,                              ,43.510,144.467,0170,009.9,     ,      ,      ,       ,    ,2022-10-31,9999-99-99
19151,標茶　　　　　　　　,ｼﾍﾞﾁｬ          ,SHIBECHA                      ,標茶　　　　　　　　,ｼﾍﾞﾁｬ          ,SHIBECHA                      ,43.292,144.587,0020,009.9,     ,      ,43.292,144.587,0020,2022-10-31,9999-99-99
19311,榊町　　　　　　　　,ｻｶｷﾏﾁ          ,SAKAKIMACHI                   ,　　　　　　　　　　,               ,                              ,43.120,145.110,0002,009.6,     ,      ,      ,       ,    ,2022-10-31,9999-99-99
19376,太田　　　　　　　　,ｵｵﾀ            ,OTA                           ,太田　　　　　　　　,ｵｵﾀ            ,OTA                           ,43.090,144.778,0085,009.9,     ,      ,43.090,144.778,0085,2022-10-31,9999-99-99
19416,白糠　　　　　　　　,ｼﾗﾇｶ           ,SHIRANUKA                     ,白糠　　　　　　　　,ｼﾗﾇｶ           ,SHIRANUKA                     ,42.970,144.062,0009,010.0,     ,      ,42.970,144.062,0009,2022-10-31,9999-99-99
19432,釧路　　　　　　　　,ｸｼﾛ            ,KUSHIRO                       ,釧路　　　　　　　　,ｸｼﾛ            ,KUSHIRO                       ,42.985,144.377,0005,066.1,     ,      ,42.985,144.377,0005,2022-10-31,9999-99-99
19451,知方学　　　　　　　,ﾁｯﾎﾟﾏﾅｲ        ,CHIPPOMANAI                   ,　　　　　　　　　　,               ,                              ,42.938,144.735,0149,010.1,     ,      ,      ,       ,    ,2022-10-31,9999-99-99
20146,陸別　　　　　　　　,ﾘｸﾍﾞﾂ          ,RIKUBETSU                     ,陸別　　　　　　　　,ﾘｸﾍﾞﾂ          ,RIKUBETSU                     ,43.472,143.753,0210,010.0,     ,      ,43.472,143.753,0210,2022-10-31,9999-99-99
20186,ぬかびら源泉郷　　　,ﾇｶﾋﾞﾗｹﾞﾝｾﾝｷｮｳ  ,NUKABIRA-GENSENKYO            ,ぬかびら源泉郷　　　,ﾇｶﾋﾞﾗｹﾞﾝｾﾝｷｮｳ  ,NUKABIRA-GENSENKYO            ,43.367,143.192,0540,009.9,     ,      ,43.367,143.192,0540,2022-10-31,9999-99-99
20266,上士幌　　　　　　　,ｶﾐｼﾎﾛ          ,KAMISHIHORO                   ,上士幌　　　　　　　,ｶﾐｼﾎﾛ          ,KAMISHIHORO                   ,43.242,143.295,0287,010.1,     ,      ,43.242,143.295,0287,2022-10-31,9999-99-99
20341,本別　　　　　　　　,ﾎﾝﾍﾞﾂ          ,HOMBETSU                      ,本別　　　　　　　　,ﾎﾝﾍﾞﾂ          ,HOMBETSU                      ,43.132,143.600,0067,010.0,     ,      ,43.132,143.600,0067,2022-10-31,9999-99-99
20356,新得　　　　　　　　,ｼﾝﾄｸ           ,SHINTOKU                      ,新得　　　　　　　　,ｼﾝﾄｸ           ,SHINTOKU                      ,43.077,142.840,0178,009.9,     ,      ,43.077,142.840,0178,2022-10-31,9999-99-99
20432,帯広　　　　　　　　,ｵﾋﾞﾋﾛ          ,OBIHIRO                       ,帯広　　　　　　　　,ｵﾋﾞﾋﾛ          ,OBIHIRO                       ,42.922,143.212,0038,011.2,     ,      ,42.922,143.212,0038,2022-10-31,9999-99-99
20506,浦幌　　　　　　　　,ｳﾗﾎﾛ           ,URAHORO                       ,浦幌　　　　　　　　,ｳﾗﾎﾛ           ,URAHORO                       ,42.808,143.657,0020,010.0,     ,      ,42.808,143.657,0020,2022-10-31,9999-99-99
20601,上札内　　　　　　　,ｶﾐｻﾂﾅｲ         ,KAMISATSUNAI                  ,上札内　　　　　　　,ｶﾐｻﾂﾅｲ         ,KAMISATSUNAI                  ,42.642,143.097,0251,010.0,     ,      ,42.642,143.097,0251,2022-10-31,9999-99-99
20696,大樹　　　　　　　　,ﾀｲｷ            ,TAIKI                         ,大樹　　　　　　　　,ﾀｲｷ            ,TAIKI                         ,42.500,143.273,0087,010.0,     ,      ,42.500,143.273,0087,2022-10-31,9999-99-99
20751,広尾　　　　　　　　,ﾋﾛｵ            ,HIRO-O                        ,広尾　　　　　　　　,ﾋﾛｵ            ,HIRO-O                        ,42.293,143.317,0032,020.1,     ,      ,42.293,143.317,0032,2022-10-31,9999-99-99
21126,穂別　　　　　　　　,ﾎﾍﾞﾂ           ,HOBETSU                       ,穂別　　　　　　　　,ﾎﾍﾞﾂ           ,HOBETSU                       ,42.762,142.143,0056,009.9,     ,      ,42.762,142.143,0056,2022-10-31,9999-99-99
21161,大滝　　　　　　　　,ｵｵﾀｷ           ,OTAKI                         ,大滝　　　　　　　　,ｵｵﾀｷ           ,OTAKI                         ,42.670,141.078,0390,009.9,     ,      ,42.670,141.078,0390,2022-10-31,9999-99-99
21171,森野　　　　　　　　,ﾓﾘﾉ            ,MORINO                        ,　　　　　　　　　　,               ,                              ,42.630,141.247,0170,009.9,     ,      ,      ,       ,    ,2022-10-31,9999-99-99
21187,苫小牧　　　　　　　,ﾄﾏｺﾏｲ          ,TOMAKOMAI                     ,苫小牧　　　　　　　,ﾄﾏｺﾏｲ          ,TOMAKOMAI                     ,42.623,141.547,0006,020.2,     ,      ,42.623,141.547,0006,2022-10-31,9999-99-99
21226,大岸　　　　　　　　,ｵｵｷｼ           ,OKISHI                        ,大岸　　　　　　　　,ｵｵｷｼ           ,OKISHI                        ,42.590,140.643,0004,010.1,     ,      ,42.590,140.643,0004,2022-10-31,9999-99-99
21297,伊達　　　　　　　　,ﾀﾞﾃ            ,DATE                          ,　　　　　　　　　　,               ,                              ,42.475,140.848,0003,010.0,     ,      ,      ,       ,    ,2022-10-31,9999-99-99
21323,室蘭　　　　　　　　,ﾑﾛﾗﾝ           ,MURORAN                       ,室蘭　　　　　　　　,ﾑﾛﾗﾝ           ,MURORAN                       ,42.312,140.975,0040,018.4,     ,      ,42.312,140.975,0040,2022-10-31,9999-99-99
22036,日高　　　　　　　　,ﾋﾀﾞｶ           ,HIDAKA                        ,日高　　　　　　　　,ﾋﾀﾞｶ           ,HIDAKA                        ,42.877,142.442,0280,010.0,     ,      ,42.877,142.442,0280,2022-10-31,9999-99-99
22141,日高門別　　　　　　,ﾋﾀﾞｶﾓﾝﾍﾞﾂ      ,HIDAKA-MOMBETSU               ,　　　　　　　　　　,               ,                              ,42.497,142.053,0047,009.9,     ,      ,      ,       ,    ,2022-10-31,9999-99-99
22241,静内　　　　　　　　,ｼｽﾞﾅｲ          ,SHIZUNAI                      ,静内　　　　　　　　,ｼｽﾞﾅｲ          ,SHIZUNAI                      ,42.343,142.362,0010,009.9,     ,      ,42.343,142.362,0010,2022-10-31,9999-99-99
22306,中杵臼　　　　　　　,ﾅｶｷﾈｳｽ         ,NAKAKINEUSU                   ,中杵臼　　　　　　　,ﾅｶｷﾈｳｽ         ,NAKAKINEUSU                   ,42.223,142.948,0098,010.0,     ,      ,42.223,142.948,0098,2022-10-31,9999-99-99
22327,浦河　　　　　　　　,ｳﾗｶﾜ           ,URAKAWA                       ,浦河　　　　　　　　,ｳﾗｶﾜ           ,URAKAWA                       ,42.162,142.777,0037,018.1,     ,      ,42.162,142.777,0037,2022-10-31,9999-99-99
22391,えりも岬　　　　　　,ｴﾘﾓﾐｻｷ         ,ERIMOMISAKI                   ,　　　　　　　　　　,               ,                              ,41.925,143.243,0063,008.1,     ,      ,      ,       ,    ,2022-10-31,9999-99-99
23031,長万部　　　　　　　,ｵｼｬﾏﾝﾍﾞ        ,OSHAMAMBE                     ,長万部　　　　　　　,ｵｼｬﾏﾝﾍﾞ        ,OSHAMAMBE                     ,42.517,140.373,0006,010.0,     ,      ,42.517,140.373,0006,2022-10-31,9999-99-99
23086,八雲　　　　　　　　,ﾔｸﾓ            ,YAKUMO                        ,八雲　　　　　　　　,ﾔｸﾓ            ,YAKUMO                        ,42.252,140.272,0008,009.9,     ,      ,42.252,140.272,0008,2022-10-31,9999-99-99
23206,川汲　　　　　　　　,ｶｯｸﾐ           ,KAKKUMI                       ,　　　　　　　　　　,               ,                              ,41.905,140.970,0025,010.1,     ,      ,      ,       ,    ,2022-10-31,9999-99-99
23226,北斗　　　　　　　　,ﾎｸﾄ            ,HOKUTO                        ,　　　　　　　　　　,               ,                              ,41.887,140.653,0025,010.0,     ,      ,      ,       ,    ,2022-10-31,9999-99-99
23232,函館　　　　　　　　,ﾊｺﾀﾞﾃ          ,HAKODATE                      ,函館　　　　　　　　,ﾊｺﾀﾞﾃ          ,HAKODATE                      ,41.817,140.753,0035,025.9,     ,      ,41.817,140.753,0035,2022-10-31,9999-99-99
23326,木古内　　　　　　　,ｷｺﾅｲ           ,KIKONAI                       ,　　　　　　　　　　,               ,                              ,41.680,140.437,0010,009.9,     ,      ,      ,       ,    ,2022-10-31,9999-99-99
23376,松前　　　　　　　　,ﾏﾂﾏｴ           ,MATSUMAE                      ,　　　　　　　　　　,               ,                              ,41.423,140.087,0030,010.1,     ,      ,      ,       ,    ,2022-10-31,9999-99-99
24051,今金　　　　　　　　,ｲﾏｶﾈ           ,IMAKANE                       ,今金　　　　　　　　,ｲﾏｶﾈ           ,IMAKANE                       ,42.428,140.008,0019,010.0,     ,      ,42.428,140.008,0019,2022-10-31,9999-99-99
24101,奥尻　　　　　　　　,ｵｸｼﾘ           ,OKUSHIRI                      ,　　　　　　　　　　,               ,                              ,42.248,139.557,0005,009.9,     ,      ,      ,       ,    ,2022-10-31,9999-99-99
24201,鶉　　　　　　　　　,ｳｽﾞﾗ           ,UZURA                         ,鶉　　　　　　　　　,ｳｽﾞﾗ           ,UZURA                         ,41.930,140.312,0053,010.0,     ,      ,41.930,140.312,0053,2022-10-31,9999-99-99
24217,江差　　　　　　　　,ｴｻｼ            ,ESASHI                        ,江差　　　　　　　　,ｴｻｼ            ,ESASHI                        ,41.867,140.123,0004,019.5,     ,      ,41.867,140.123,0004,2022-10-31,9999-99-99
31001,大間　　　　　　　　,ｵｵﾏ            ,OMA                           ,大間　　　　　　　　,ｵｵﾏ            ,OMA                           ,41.527,140.912,0014,009.9,     ,      ,41.527,140.912,0014,2022-10-31,9999-99-99
31111,むつ　　　　　　　　,ﾑﾂ             ,MUTSU                         ,むつ　　　　　　　　,ﾑﾂ             ,MUTSU                         ,41.283,141.210,0003,011.1,     ,      ,41.283,141.210,0003,2022-10-31,9999-99-99
31136,今別　　　　　　　　,ｲﾏﾍﾞﾂ          ,IMABETSU                      ,今別　　　　　　　　,ｲﾏﾍﾞﾂ          ,IMABETSU                      ,41.180,140.482,0030,010.0,     ,      ,41.180,140.482,0030,2022-10-31,9999-99-99
31156,脇野沢　　　　　　　,ﾜｷﾉｻﾜ          ,WAKINOSAWA                    ,脇野沢　　　　　　　,ﾜｷﾉｻﾜ          ,WAKINOSAWA                    ,41.145,140.822,0015,010.0,     ,      ,41.145,140.822,0015,2022-10-31,9999-99-99
31186,市浦　　　　　　　　,ｼｳﾗ            ,SHIURA                        ,　　　　　　　　　　,               ,                              ,41.057,140.347,0020,009.9,     ,      ,      ,       ,    ,2022-10-31,9999-99-99
31296,五所川原　　　　　　,ｺﾞｼｮｶﾞﾜﾗ       ,GOSHOGAWARA                   ,五所川原　　　　　　,ｺﾞｼｮｶﾞﾜﾗ       ,GOSHOGAWARA                   ,40.808,140.458,0009,009.9,     ,      ,40.808,140.458,0009,2022-10-31,9999-99-99
31312,青森　　　　　　　　,ｱｵﾓﾘ           ,AOMORI                        ,青森　　　　　　　　,ｱｵﾓﾘ           ,AOMORI                        ,40.822,140.768,0003,031.8,     ,      ,40.822,140.768,0003,2022-10-31,9999-99-99
31336,六ケ所　　　　　　　,ﾛｯｶｼｮ          ,ROKKASHO                      ,　　　　　　　　　　,               ,                              ,40.885,141.272,0080,008.2,     ,      ,      ,       ,    ,2022-10-31,9999-99-99
31366,鰺ケ沢　　　　　　　,ｱｼﾞｶﾞｻﾜ        ,AJIGASAWA                     ,鰺ケ沢　　　　　　　,ｱｼﾞｶﾞｻﾜ        ,AJIGASAWA                     ,40.777,140.205,0040,010.1,     ,      ,40.777,140.205,0040,2022-10-31,9999-99-99
31436,深浦　　　　　　　　,ﾌｶｳﾗ           ,FUKAURA                       ,深浦　　　　　　　　,ﾌｶｳﾗ           ,FUKAURA                       ,40.645,139.932,0066,022.2,     ,      ,40.645,139.932,0066,2022-10-31,9999-99-99
31461,弘前　　　　　　　　,ﾋﾛｻｷ           ,HIROSAKI                      ,弘前　　　　　　　　,ﾋﾛｻｷ           ,HIROSAKI                      ,40.612,140.455,0030,010.0,     ,      ,40.612,140.455,0030,2022-10-31,9999-99-99
31466,黒石　　　　　　　　,ｸﾛｲｼ           ,KUROISHI                      ,　　　　　　　　　　,               ,                              ,40.667,140.585,0030,010.0,     ,      ,      ,       ,    ,2022-10-31,9999-99-99
31506,三沢　　　　　　　　,ﾐｻﾜ            ,MISAWA                        ,　　　　　　　　　　,               ,                              ,40.675,141.375,0039,008.0,     ,      ,      ,       ,    ,2022-10-31,9999-99-99
31586,十和田　　　　　　　,ﾄﾜﾀﾞ           ,TOWADA                        ,十和田　　　　　　　,ﾄﾜﾀﾞ           ,TOWADA                        ,40.607,141.233,0055,010.0,     ,      ,40.607,141.233,0055,2022-10-31,9999-99-99
31602,八戸　　　　　　　　,ﾊﾁﾉﾍ           ,HACHINOHE                     ,八戸　　　　　　　　,ﾊﾁﾉﾍ           ,HACHINOHE                     ,40.527,141.522,0027,027.5,     ,      ,40.527,141.522,0027,2022-10-31,9999-99-99
31646,碇ケ関　　　　　　　,ｲｶﾘｶﾞｾｷ        ,IKARIGASEKI                   ,碇ケ関　　　　　　　,ｲｶﾘｶﾞｾｷ        ,IKARIGASEKI                   ,40.482,140.620,0135,010.1,     ,      ,40.482,140.620,0135,2022-10-31,9999-99-99
31721,三戸　　　　　　　　,ｻﾝﾉﾍ           ,SANNOHE                       ,三戸　　　　　　　　,ｻﾝﾉﾍ           ,SANNOHE                       ,40.383,141.257,0060,009.9,     ,      ,40.383,141.257,0060,2022-10-31,9999-99-99
32056,八森　　　　　　　　,ﾊﾁﾓﾘ           ,HACHIMORI                     ,　　　　　　　　　　,               ,                              ,40.413,139.948,0034,010.1,     ,      ,      ,       ,    ,2022-10-31,9999-99-99
32111,能代　　　　　　　　,ﾉｼﾛ            ,NOSHIRO                       ,能代　　　　　　　　,ﾉｼﾛ            ,NOSHIRO                       ,40.198,140.032,0006,019.0,     ,      ,40.198,140.032,0006,2022-10-31,9999-99-99
32126,鷹巣　　　　　　　　,ﾀｶﾉｽ           ,TAKANOSU                      ,鷹巣　　　　　　　　,ﾀｶﾉｽ           ,TAKANOSU                      ,40.227,140.372,0029,010.3,     ,      ,40.227,140.372,0029,2022-10-31,9999-99-99
32146,鹿角　　　　　　　　,ｶﾂﾞﾉ           ,KAZUNO                        ,鹿角　　　　　　　　,ｶﾂﾞﾉ           ,KAZUNO                        ,40.215,140.787,0123,010.0,     ,      ,40.215,140.787,0123,2022-10-31,9999-99-99
32206,湯瀬　　　　　　　　,ﾕｾﾞ            ,YUZE                          ,　　　　　　　　　　,               ,                              ,40.120,140.840,0214,009.9,     ,      ,      ,       ,    ,2022-10-31,9999-99-99
32266,八幡平　　　　　　　,ﾊﾁﾏﾝﾀｲ         ,HACHIMANTAI                   ,　　　　　　　　　　,               ,                              ,40.013,140.802,0578,009.9,     ,      ,      ,       ,    ,2022-10-31,9999-99-99
32286,男鹿　　　　　　　　,ｵｶﾞ            ,OGA                           ,　　　　　　　　　　,               ,                              ,39.912,139.900,0020,006.4,     ,      ,      ,       ,    ,2022-10-31,9999-99-99
32296,五城目　　　　　　　,ｺﾞｼﾞｮｳﾒ        ,GOJOME                        ,五城目　　　　　　　,ｺﾞｼﾞｮｳﾒ        ,GOJOME                        ,39.938,140.115,0006,006.4,     ,      ,39.938,140.115,0006,2022-10-31,9999-99-99
32402,秋田　　　　　　　　,ｱｷﾀ            ,AKITA                         ,秋田　　　　　　　　,ｱｷﾀ            ,AKITA                         ,39.717,140.098,0006,040.8,     ,      ,39.717,140.098,0006,2022-10-31,9999-99-99
32407,岩見三内　　　　　　,ｲﾜﾐｻﾝﾅｲ        ,IWAMISANNAI                   ,　　　　　　　　　　,               ,                              ,39.707,140.287,0041,010.1,     ,      ,      ,       ,    ,2022-10-31,9999-99-99
32476,田沢湖　　　　　　　,ﾀｻﾞﾜｺ          ,TAZAWA-KO                     ,　　　　　　　　　　,               ,                              ,39.698,140.732,0230,006.4,     ,      ,      ,       ,    ,2022-10-31,9999-99-99
32496,大正寺　　　　　　　,ﾀﾞｲｼｮｳｼﾞ       ,DAISHOJI                      ,大正寺　　　　　　　,ﾀﾞｲｼｮｳｼﾞ       ,DAISHOJI                      ,39.527,140.233,0020,006.5,     ,      ,39.527,140.233,0020,2022-10-31,9999-99-99
32551,大曲　　　　　　　　,ｵｵﾏｶﾞﾘ         ,OMAGARI                       ,　　　　　　　　　　,               ,                              ,39.490,140.495,0030,009.9,     ,      ,      ,       ,    ,2022-10-31,9999-99-99
32571,本荘　　　　　　　　,ﾎﾝｼﾞｮｳ         ,HONJO                         ,本荘　　　　　　　　,ﾎﾝｼﾞｮｳ         ,HONJO                         ,39.360,140.055,0011,006.4,     ,      ,39.360,140.055,0011,2022-10-31,9999-99-99
32596,横手　　　　　　　　,ﾖｺﾃ            ,YOKOTE                        ,横手　　　　　　　　,ﾖｺﾃ            ,YOKOTE                        ,39.320,140.555,0059,009.9,     ,      ,39.320,140.555,0059,2022-10-31,9999-99-99
32616,にかほ　　　　　　　,ﾆｶﾎ            ,NIKAHO                        ,　　　　　　　　　　,               ,                              ,39.255,139.913,0007,010.1,     ,      ,      ,       ,    ,2022-10-31,9999-99-99
32626,矢島　　　　　　　　,ﾔｼﾏ            ,YASHIMA                       ,矢島　　　　　　　　,ﾔｼﾏ            ,YASHIMA                       ,39.235,140.137,0046,010.0,     ,      ,39.235,140.137,0046,2022-10-31,9999-99-99
32691,湯沢　　　　　　　　,ﾕｻﾞﾜ           ,YUZAWA                        ,湯沢　　　　　　　　,ﾕｻﾞﾜ           ,YUZAWA                        ,39.187,140.463,0074,009.9,     ,      ,39.187,140.463,0074,2022-10-31,9999-99-99
32771,湯の岱　　　　　　　,ﾕﾉﾀｲ           ,YUNOTAI                       ,湯の岱　　　　　　　,ﾕﾉﾀｲ           ,YUNOTAI                       ,38.960,140.528,0335,006.5,     ,      ,38.960,140.528,0335,2022-10-31,9999-99-99
33006,種市　　　　　　　　,ﾀﾈｲﾁ           ,TANEICHI                      ,　　　　　　　　　　,               ,                              ,40.403,141.700,0070,006.4,     ,      ,      ,       ,    ,2022-10-31,9999-99-99
33026,軽米　　　　　　　　,ｶﾙﾏｲ           ,KARUMAI                       ,　　　　　　　　　　,               ,                              ,40.325,141.467,0148,009.9,     ,      ,      ,       ,    ,2022-10-31,9999-99-99
33146,久慈　　　　　　　　,ｸｼﾞ            ,KUJI                          ,久慈　　　　　　　　,ｸｼﾞ            ,KUJI                          ,40.168,141.748,0013,009.9,     ,      ,40.168,141.748,0013,2022-10-31,9999-99-99
33166,荒屋　　　　　　　　,ｱﾗﾔ            ,ARAYA                         ,　　　　　　　　　　,               ,                              ,40.103,141.050,0290,010.1,     ,      ,      ,       ,    ,2022-10-31,9999-99-99
33186,葛巻　　　　　　　　,ｸｽﾞﾏｷ          ,KUZUMAKI                      ,葛巻　　　　　　　　,ｸｽﾞﾏｷ          ,KUZUMAKI                      ,40.040,141.457,0418,010.0,     ,      ,40.040,141.457,0418,2022-10-31,9999-99-99
33206,普代　　　　　　　　,ﾌﾀﾞｲ           ,FUDAI                         ,　　　　　　　　　　,               ,                              ,40.003,141.883,0008,009.3,     ,      ,      ,       ,    ,2022-10-31,9999-99-99
33226,岩手松尾　　　　　　,ｲﾜﾃﾏﾂｵ         ,IWATE-MATSUO                  ,岩手松尾　　　　　　,ｲﾜﾃﾏﾂｵ         ,IWATE-MATSUO                  ,39.952,141.065,0275,009.9,     ,      ,39.952,141.065,0275,2022-10-31,9999-99-99
33326,岩泉　　　　　　　　,ｲﾜｲｽﾞﾐ         ,IWAIZUMI                      ,岩泉　　　　　　　　,ｲﾜｲｽﾞﾐ         ,IWAIZUMI                      ,39.847,141.795,0105,009.9,     ,      ,39.847,141.795,0105,2022-10-31,9999-99-99
33336,小本　　　　　　　　,ｵﾓﾄ            ,OMOTO                         ,　　　　　　　　　　,               ,                              ,39.847,141.963,0003,010.0,     ,      ,      ,       ,    ,2022-10-31,9999-99-99
33371,薮川　　　　　　　　,ﾔﾌﾞｶﾜ          ,YABUKAWA                      ,　　　　　　　　　　,               ,                              ,39.783,141.328,0680,009.9,     ,      ,      ,       ,    ,2022-10-31,9999-99-99
33431,盛岡　　　　　　　　,ﾓﾘｵｶ           ,MORIOKA                       ,盛岡　　　　　　　　,ﾓﾘｵｶ           ,MORIOKA                       ,39.698,141.165,0155,015.5,     ,      ,39.698,141.165,0155,2022-10-31,9999-99-99
33441,区界　　　　　　　　,ｸｻﾞｶｲ          ,KUZAKAI                       ,区界　　　　　　　　,ｸｻﾞｶｲ          ,KUZAKAI                       ,39.650,141.353,0734,010.0,     ,      ,39.650,141.353,0734,2022-10-31,9999-99-99
33472,宮古　　　　　　　　,ﾐﾔｺ            ,MIYAKO                        ,宮古　　　　　　　　,ﾐﾔｺ            ,MIYAKO                        ,39.647,141.965,0043,020.3,     ,      ,39.647,141.965,0043,2022-10-31,9999-99-99
33486,沢内　　　　　　　　,ｻﾜｳﾁ           ,SAWAUCHI                      ,　　　　　　　　　　,               ,                              ,39.548,140.843,0407,009.9,     ,      ,      ,       ,    ,2022-10-31,9999-99-99
33631,湯田　　　　　　　　,ﾕﾀﾞ            ,YUDA                          ,湯田　　　　　　　　,ﾕﾀﾞ            ,YUDA                          ,39.310,140.777,0250,009.9,     ,      ,39.310,140.777,0250,2022-10-31,9999-99-99
33671,遠野　　　　　　　　,ﾄｵﾉ            ,TOONO                         ,遠野　　　　　　　　,ﾄｵﾉ            ,TOONO                         ,39.338,141.543,0275,010.1,     ,      ,39.338,141.543,0275,2022-10-31,9999-99-99
33716,北上　　　　　　　　,ｷﾀｶﾐ           ,KITAKAMI                      ,北上　　　　　　　　,ｷﾀｶﾐ           ,KITAKAMI                      ,39.288,141.110,0061,006.4,     ,      ,39.288,141.110,0061,2022-10-31,9999-99-99
33776,若柳　　　　　　　　,ﾜｶﾔﾅｷﾞ         ,WAKAYANAGI                    ,　　　　　　　　　　,               ,                              ,39.140,141.063,0097,010.0,     ,      ,      ,       ,    ,2022-10-31,9999-99-99
33801,住田　　　　　　　　,ｽﾐﾀ            ,SUMITA                        ,　　　　　　　　　　,               ,                              ,39.142,141.573,0080,010.0,     ,      ,      ,       ,    ,2022-10-31,9999-99-99
33877,大船渡　　　　　　　,ｵｵﾌﾅﾄ          ,OFUNATO                       ,大船渡　　　　　　　,ｵｵﾌﾅﾄ          ,OFUNATO                       ,39.063,141.713,0037,022.2,     ,      ,39.063,141.713,0037,2022-10-31,9999-99-99
33911,一関　　　　　　　　,ｲﾁﾉｾｷ          ,ICHINOSEKI                    ,一関　　　　　　　　,ｲﾁﾉｾｷ          ,ICHINOSEKI                    ,38.933,141.125,0032,010.1,     ,      ,38.933,141.125,0032,2022-10-31,9999-99-99
33921,千厩　　　　　　　　,ｾﾝﾏﾔ           ,SEMMAYA                       ,　　　　　　　　　　,               ,                              ,38.922,141.330,0120,010.0,     ,      ,      ,       ,    ,2022-10-31,9999-99-99
34012,駒ノ湯　　　　　　　,ｺﾏﾉﾕ           ,KOMANOYU                      ,駒ノ湯　　　　　　　,ｺﾏﾉﾕ           ,KOMANOYU                      ,38.913,140.828,0532,010.0,     ,      ,38.913,140.828,0532,2022-10-31,9999-99-99
34026,気仙沼　　　　　　　,ｹｾﾝﾇﾏ          ,KESENNUMA                     ,　　　　　　　　　　,               ,                              ,38.907,141.557,0062,010.0,     ,      ,      ,       ,    ,2022-10-31,9999-99-99
34111,築館　　　　　　　　,ﾂｷﾀﾞﾃ          ,TSUKIDATE                     ,　　　　　　　　　　,               ,                              ,38.735,141.005,0025,006.6,     ,      ,      ,       ,    ,2022-10-31,9999-99-99
34171,米山　　　　　　　　,ﾖﾈﾔﾏ           ,YONEYAMA                      ,　　　　　　　　　　,               ,                              ,38.625,141.187,0004,010.0,     ,      ,      ,       ,    ,2022-10-31,9999-99-99
34186,志津川　　　　　　　,ｼﾂﾞｶﾞﾜ         ,SHIZUGAWA                     ,　　　　　　　　　　,               ,                              ,38.682,141.448,0039,009.9,     ,      ,      ,       ,    ,2022-10-31,9999-99-99
34216,古川　　　　　　　　,ﾌﾙｶﾜ           ,FURUKAWA                      ,古川　　　　　　　　,ﾌﾙｶﾜ           ,FURUKAWA                      ,38.598,140.912,0028,006.6,     ,      ,38.598,140.912,0028,2022-10-31,9999-99-99
34292,石巻　　　　　　　　,ｲｼﾉﾏｷ          ,ISHINOMAKI                    ,石巻　　　　　　　　,ｲｼﾉﾏｷ          ,ISHINOMAKI                    ,38.427,141.298,0043,028.6,     ,      ,38.427,141.298,0043,2022-10-31,9999-99-99
34296,女川　　　　　　　　,ｵﾅｶﾞﾜ          ,ONAGAWA                       ,　　　　　　　　　　,               ,                              ,38.447,141.450,0038,010.0,     ,      ,      ,       ,    ,2022-10-31,9999-99-99
34311,新川　　　　　　　　,ﾆｯｶﾜ           ,NIKKAWA                       ,新川　　　　　　　　,ﾆｯｶﾜ           ,NIKKAWA                       ,38.303,140.637,0265,010.1,     ,      ,38.303,140.637,0265,2022-10-31,9999-99-99
34331,塩釜　　　　　　　　,ｼｵｶﾞﾏ          ,SHIOGAMA                      ,　　　　　　　　　　,               ,                              ,38.338,141.013,0105,010.0,     ,      ,      ,       ,    ,2022-10-31,9999-99-99
34392,仙台　　　　　　　　,ｾﾝﾀﾞｲ          ,SENDAI                        ,仙台　　　　　　　　,ｾﾝﾀﾞｲ          ,SENDAI                        ,38.262,140.897,0039,052.6,     ,      ,38.262,140.897,0039,2022-10-31,9999-99-99
34461,白石　　　　　　　　,ｼﾛｲｼ           ,SHIROISHI                     ,白石　　　　　　　　,ｼﾛｲｼ           ,SHIROISHI                     ,38.015,140.612,0086,010.1,     ,      ,38.015,140.612,0086,2022-10-31,9999-99-99
34462,蔵王　　　　　　　　,ｻﾞｵｳ           ,ZAO                           ,　　　　　　　　　　,               ,                              ,38.127,140.680,0112,006.6,     ,      ,      ,       ,    ,2022-10-31,9999-99-99
35002,飛島　　　　　　　　,ﾄﾋﾞｼﾏ          ,TOBISHIMA                     ,　　　　　　　　　　,               ,                              ,39.183,139.543,0058,020.4,     ,      ,      ,       ,    ,2022-10-31,9999-99-99
35052,酒田　　　　　　　　,ｻｶﾀ            ,SAKATA                        ,酒田　　　　　　　　,ｻｶﾀ            ,SAKATA                        ,38.908,139.843,0003,026.6,     ,      ,38.908,139.843,0003,2022-10-31,9999-99-99
35071,差首鍋　　　　　　　,ｻｽﾅﾍﾞ          ,SASUNABE                      ,　　　　　　　　　　,               ,                              ,38.918,140.200,0088,008.9,     ,      ,      ,       ,    ,2022-10-31,9999-99-99
35141,鶴岡　　　　　　　　,ﾂﾙｵｶ           ,TSURUOKA                      ,　　　　　　　　　　,               ,                              ,38.735,139.828,0016,010.1,     ,      ,      ,       ,    ,2022-10-31,9999-99-99
35146,狩川　　　　　　　　,ｶﾘｶﾜ           ,KARIKAWA                      ,狩川　　　　　　　　,ｶﾘｶﾜ           ,KARIKAWA                      ,38.800,139.973,0017,009.9,     ,      ,38.800,139.973,0017,2022-10-31,9999-99-99
35162,新庄　　　　　　　　,ｼﾝｼﾞｮｳ         ,SHINJO                        ,新庄　　　　　　　　,ｼﾝｼﾞｮｳ         ,SHINJO                        ,38.757,140.312,0105,031.6,     ,      ,38.757,140.312,0105,2022-10-31,9999-99-99
35176,向町　　　　　　　　,ﾑｶｲﾏﾁ          ,MUKAIMACHI                    ,向町　　　　　　　　,ﾑｶｲﾏﾁ          ,MUKAIMACHI                    ,38.758,140.517,0212,009.9,     ,      ,38.758,140.517,0212,2022-10-31,9999-99-99
35231,尾花沢　　　　　　　,ｵﾊﾞﾅｻﾞﾜ        ,OBANAZAWA                     ,尾花沢　　　　　　　,ｵﾊﾞﾅｻﾞﾜ        ,OBANAZAWA                     ,38.608,140.412,0106,008.9,     ,      ,38.608,140.412,0106,2022-10-31,9999-99-99
35246,鼠ケ関　　　　　　　,ﾈｽﾞｶﾞｾｷ        ,NEZUGASEKI                    ,　　　　　　　　　　,               ,                              ,38.567,139.552,0018,010.2,     ,      ,      ,       ,    ,2022-10-31,9999-99-99
35332,村山　　　　　　　　,ﾑﾗﾔﾏ           ,MURAYAMA                      ,　　　　　　　　　　,               ,                              ,38.460,140.348,0080,006.7,     ,      ,      ,       ,    ,2022-10-31,9999-99-99
35376,左沢　　　　　　　　,ｱﾃﾗｻﾞﾜ         ,ATERAZAWA                     ,左沢　　　　　　　　,ｱﾃﾗｻﾞﾜ         ,ATERAZAWA                     ,38.370,140.192,0133,006.5,     ,      ,38.370,140.192,0133,2022-10-31,9999-99-99
35426,山形　　　　　　　　,ﾔﾏｶﾞﾀ          ,YAMAGATA                      ,山形　　　　　　　　,ﾔﾏｶﾞﾀ          ,YAMAGATA                      ,38.255,140.345,0153,014.9,     ,      ,38.255,140.345,0153,2022-10-31,9999-99-99
35456,長井　　　　　　　　,ﾅｶﾞｲ           ,NAGAI                         ,長井　　　　　　　　,ﾅｶﾞｲ           ,NAGAI                         ,38.105,140.015,0210,008.9,     ,      ,38.105,140.015,0210,2022-10-31,9999-99-99
35486,小国　　　　　　　　,ｵｸﾞﾆ           ,OGUNI                         ,小国　　　　　　　　,ｵｸﾞﾆ           ,OGUNI                         ,38.078,139.735,0140,009.9,     ,      ,38.078,139.735,0140,2022-10-31,9999-99-99
35511,高畠　　　　　　　　,ﾀｶﾊﾀ           ,TAKAHATA                      ,　　　　　　　　　　,               ,                              ,38.003,140.207,0220,010.0,     ,      ,      ,       ,    ,2022-10-31,9999-99-99
35541,高峰　　　　　　　　,ﾀｶﾐﾈ           ,TAKAMINE                      ,　　　　　　　　　　,               ,                              ,37.990,139.953,0260,010.0,     ,      ,      ,       ,    ,2022-10-31,9999-99-99
35552,米沢　　　　　　　　,ﾖﾈｻﾞﾜ          ,YONEZAWA                      ,米沢　　　　　　　　,ﾖﾈｻﾞﾜ          ,YONEZAWA                      ,37.912,140.143,0245,009.3,     ,      ,37.912,140.143,0245,2022-10-31,9999-99-99
36127,福島　　　　　　　　,ﾌｸｼﾏ           ,FUKUSHIMA                     ,福島　　　　　　　　,ﾌｸｼﾏ           ,FUKUSHIMA                     ,37.758,140.470,0067,012.0,     ,      ,37.758,140.470,0067,2022-10-31,9999-99-99
36151,相馬　　　　　　　　,ｿｳﾏ            ,SOMA                          ,　　　　　　　　　　,               ,                              ,37.783,140.925,0009,006.5,     ,      ,      ,       ,    ,2022-10-31,9999-99-99
36176,喜多方　　　　　　　,ｷﾀｶﾀ           ,KITAKATA                      ,　　　　　　　　　　,               ,                              ,37.658,139.863,0212,009.9,     ,      ,      ,       ,    ,2022-10-31,9999-99-99
36196,鷲倉　　　　　　　　,ﾜｼｸﾗ           ,WASHIKURA                     ,　　　　　　　　　　,               ,                              ,37.668,140.260,1220,006.4,     ,      ,      ,       ,    ,2022-10-31,9999-99-99
36251,西会津　　　　　　　,ﾆｼｱｲﾂﾞ         ,NISHIAIZU                     ,西会津　　　　　　　,ﾆｼｱｲﾂﾞ         ,NISHIAIZU                     ,37.588,139.657,0165,009.9,     ,      ,37.588,139.657,0165,2022-10-31,9999-99-99
36276,猪苗代　　　　　　　,ｲﾅﾜｼﾛ          ,INAWASHIRO                    ,猪苗代　　　　　　　,ｲﾅﾜｼﾛ          ,INAWASHIRO                    ,37.552,140.108,0519,009.9,     ,      ,37.552,140.108,0519,2022-10-31,9999-99-99
36342,金山　　　　　　　　,ｶﾈﾔﾏ           ,KANEYAMA                      ,金山　　　　　　　　,ｶﾈﾔﾏ           ,KANEYAMA                      ,37.473,139.528,0296,010.0,     ,      ,37.473,139.528,0296,2022-10-31,9999-99-99
36361,若松　　　　　　　　,ﾜｶﾏﾂ           ,WAKAMATSU                     ,若松　　　　　　　　,ﾜｶﾏﾂ           ,WAKAMATSU                     ,37.488,139.910,0212,019.1,     ,      ,37.488,139.910,0212,2022-10-31,9999-99-99
36391,船引　　　　　　　　,ﾌﾈﾋｷ           ,FUNEHIKI                      ,　　　　　　　　　　,               ,                              ,37.435,140.577,0421,006.5,     ,      ,      ,       ,    ,2022-10-31,9999-99-99
36411,浪江　　　　　　　　,ﾅﾐｴ            ,NAMIE                         ,　　　　　　　　　　,               ,                              ,37.492,140.965,0043,009.9,     ,      ,      ,       ,    ,2022-10-31,9999-99-99
36426,只見　　　　　　　　,ﾀﾀﾞﾐ           ,TADAMI                        ,只見　　　　　　　　,ﾀﾀﾞﾐ           ,TADAMI                        ,37.343,139.313,0377,010.4,     ,      ,37.343,139.313,0377,2022-10-31,9999-99-99
36476,郡山　　　　　　　　,ｺｵﾘﾔﾏ          ,KOORIYAMA                     ,　　　　　　　　　　,               ,                              ,37.368,140.330,0249,006.4,     ,      ,      ,       ,    ,2022-10-31,9999-99-99
36501,川内　　　　　　　　,ｶﾜｳﾁ           ,KAWAUCHI                      ,　　　　　　　　　　,               ,                              ,37.337,140.808,0410,009.9,     ,      ,      ,       ,    ,2022-10-31,9999-99-99
36536,南郷　　　　　　　　,ﾅﾝｺﾞｳ          ,NANGO                         ,南郷　　　　　　　　,ﾅﾝｺﾞｳ          ,NANGO                         ,37.265,139.537,0494,007.9,     ,      ,37.265,139.537,0494,2022-10-31,9999-99-99
36562,湯本　　　　　　　　,ﾕﾓﾄ            ,YUMOTO                        ,湯本　　　　　　　　,ﾕﾓﾄ            ,YUMOTO                        ,37.277,140.063,0646,009.8,     ,      ,37.277,140.063,0646,2022-10-31,9999-99-99
36591,小野新町　　　　　　,ｵﾉﾆｲﾏﾁ         ,ONO-NIIMACHI                  ,　　　　　　　　　　,               ,                              ,37.287,140.625,0433,009.9,     ,      ,      ,       ,    ,2022-10-31,9999-99-99
36611,広野　　　　　　　　,ﾋﾛﾉ            ,HIRONO                        ,　　　　　　　　　　,               ,                              ,37.233,141.000,0043,010.0,     ,      ,      ,       ,    ,2022-10-31,9999-99-99
36667,白河　　　　　　　　,ｼﾗｶﾜ           ,SHIRAKAWA                     ,白河　　　　　　　　,ｼﾗｶﾜ           ,SHIRAKAWA                     ,37.132,140.215,0355,045.3,     ,      ,37.132,140.215,0355,2022-10-31,9999-99-99
36716,桧枝岐　　　　　　　,ﾋﾉｴﾏﾀ          ,HINOEMATA                     ,桧枝岐　　　　　　　,ﾋﾉｴﾏﾀ          ,HINOEMATA                     ,37.010,139.375,0973,009.9,     ,      ,37.010,139.375,0973,2022-10-31,9999-99-99
36821,東白川　　　　　　　,ﾋｶﾞｼｼﾗｶﾜ       ,HIGASHISHIRAKAWA              ,　　　　　　　　　　,               ,                              ,36.938,140.408,0183,006.4,     ,      ,      ,       ,    ,2022-10-31,9999-99-99
36836,山田　　　　　　　　,ﾔﾏﾀﾞ           ,YAMADA                        ,　　　　　　　　　　,               ,                              ,36.933,140.733,0025,010.0,     ,      ,      ,       ,    ,2022-10-31,9999-99-99
36846,小名浜　　　　　　　,ｵﾅﾊﾏ           ,ONAHAMA                       ,　　　　　　　　　　,               ,                              ,36.947,140.903,0003,020.0,     ,      ,      ,       ,    ,2022-10-31,9999-99-99
40046,北茨城　　　　　　　,ｷﾀｲﾊﾞﾗｷ        ,KITAIBARAKI                   ,　　　　　　　　　　,               ,                              ,36.833,140.772,0005,009.9,     ,      ,      ,       ,    ,2022-10-31,9999-99-99
40061,大子　　　　　　　　,ﾀﾞｲｺﾞ          ,DAIGO                         ,　　　　　　　　　　,               ,                              ,36.778,140.345,0120,009.9,     ,      ,      ,       ,    ,2022-10-31,9999-99-99
40136,日立　　　　　　　　,ﾋﾀﾁ            ,HITACHI                       ,　　　　　　　　　　,               ,                              ,36.580,140.645,0034,010.0,     ,      ,      ,       ,    ,2022-10-31,9999-99-99
40191,笠間　　　　　　　　,ｶｻﾏ            ,KASAMA                        ,　　　　　　　　　　,               ,                              ,36.395,140.240,0072,010.0,     ,      ,      ,       ,    ,2022-10-31,9999-99-99
40201,水戸　　　　　　　　,ﾐﾄ             ,MITO                          ,水戸　　　　　　　　,ﾐﾄ             ,MITO                          ,36.380,140.467,0029,014.1,     ,      ,36.380,140.467,0029,2022-10-31,9999-99-99
40221,古河　　　　　　　　,ｺｶﾞ            ,KOGA                          ,　　　　　　　　　　,               ,                              ,36.202,139.717,0020,010.0,     ,      ,      ,       ,    ,2022-10-31,9999-99-99
40231,下館　　　　　　　　,ｼﾓﾀﾞﾃ          ,SHIMODATE                     ,　　　　　　　　　　,               ,                              ,36.282,139.988,0024,006.4,     ,      ,      ,       ,    ,2022-10-31,9999-99-99
40281,下妻　　　　　　　　,ｼﾓﾂﾏ           ,SHIMOTSUMA                    ,　　　　　　　　　　,               ,                              ,36.168,139.945,0020,010.0,     ,      ,      ,       ,    ,2022-10-31,9999-99-99
40311,鉾田　　　　　　　　,ﾎｺﾀ            ,HOKOTA                        ,　　　　　　　　　　,               ,                              ,36.168,140.527,0032,009.9,     ,      ,      ,       ,    ,2022-10-31,9999-99-99
40336,つくば　　　　　　　,ﾂｸﾊﾞ           ,TSUKUBA                       ,つくば　　　　　　　,ﾂｸﾊﾞ           ,TSUKUBA                       ,36.057,140.125,0025,010.6,     ,      ,36.057,140.125,0025,2022-10-31,9999-99-99
40406,鹿嶋　　　　　　　　,ｶｼﾏ            ,KASHIMA                       ,　　　　　　　　　　,               ,                              ,35.963,140.622,0037,009.9,     ,      ,      ,       ,    ,2022-10-31,9999-99-99
40426,龍ケ崎　　　　　　　,ﾘｭｳｶﾞｻｷ        ,RYUGASAKI                     ,　　　　　　　　　　,               ,                              ,35.890,140.212,0004,009.4,     ,      ,      ,       ,    ,2022-10-31,9999-99-99
41011,那須高原　　　　　　,ﾅｽｺｳｹﾞﾝ        ,NASU-KOGEN                    ,那須高原　　　　　　,ﾅｽｺｳｹﾞﾝ        ,NASU-KOGEN                    ,37.123,140.035,0749,006.6,     ,      ,37.123,140.035,0749,2022-10-31,9999-99-99
41076,五十里　　　　　　　,ｲｶﾘ            ,IKARI                         ,　　　　　　　　　　,               ,                              ,36.922,139.695,0620,009.9,     ,      ,      ,       ,    ,2022-10-31,9999-99-99
41091,黒磯　　　　　　　　,ｸﾛｲｿ           ,KUROISO                       ,　　　　　　　　　　,               ,                              ,36.982,140.018,0343,009.9,     ,      ,      ,       ,    ,2022-10-31,9999-99-99
41141,大田原　　　　　　　,ｵｵﾀﾜﾗ          ,OTAWARA                       ,　　　　　　　　　　,               ,                              ,36.840,140.035,0188,009.9,     ,      ,      ,       ,    ,2022-10-31,9999-99-99
41166,奥日光　　　　　　　,ｵｸﾆｯｺｳ         ,OKUNIKKO                      ,奥日光　　　　　　　,ｵｸﾆｯｺｳ         ,OKUNIKKO                      ,36.738,139.500,1292,011.3,     ,      ,36.738,139.500,1292,2022-10-31,9999-99-99
41172,日光東町　　　　　　,ﾆｯｺｳﾋｶﾞｼﾏﾁ     ,NIKKOHIGASHIMACHI             ,　　　　　　　　　　,               ,                              ,36.750,139.615,0561,010.4,     ,      ,      ,       ,    ,2022-10-31,9999-99-99
41181,塩谷　　　　　　　　,ｼｵﾔ            ,SHIOYA                        ,　　　　　　　　　　,               ,                              ,36.757,139.883,0225,010.5,     ,      ,      ,       ,    ,2022-10-31,9999-99-99
41277,宇都宮　　　　　　　,ｳﾂﾉﾐﾔ          ,UTSUNOMIYA                    ,宇都宮　　　　　　　,ｳﾂﾉﾐﾔ          ,UTSUNOMIYA                    ,36.548,139.868,0119,049.4,     ,      ,36.548,139.868,0119,2022-10-31,9999-99-99
41331,真岡　　　　　　　　,ﾓｵｶ            ,MOOKA                         ,　　　　　　　　　　,               ,                              ,36.477,139.987,0091,010.0,     ,      ,      ,       ,    ,2022-10-31,9999-99-99
41361,佐野　　　　　　　　,ｻﾉ             ,SANO                          ,　　　　　　　　　　,               ,                              ,36.363,139.570,0068,010.8,     ,      ,      ,       ,    ,2022-10-31,9999-99-99
42046,藤原　　　　　　　　,ﾌｼﾞﾜﾗ          ,FUJIWARA                      ,藤原　　　　　　　　,ﾌｼﾞﾜﾗ          ,FUJIWARA                      ,36.863,139.058,0700,009.9,     ,      ,36.863,139.058,0700,2022-10-31,9999-99-99
42091,みなかみ　　　　　　,ﾐﾅｶﾐ           ,MINAKAMI                      ,みなかみ　　　　　　,ﾐﾅｶﾐ           ,MINAKAMI                      ,36.773,138.965,0524,010.0,     ,      ,36.773,138.965,0524,2022-10-31,9999-99-99
42146,沼田　　　　　　　　,ﾇﾏﾀ            ,NUMATA                        ,　　　　　　　　　　,               ,                              ,36.668,139.022,0390,009.9,     ,      ,      ,       ,    ,2022-10-31,9999-99-99
42186,中之条　　　　　　　,ﾅｶﾉｼﾞｮｳ        ,NAKANOJO                      ,　　　　　　　　　　,               ,                              ,36.587,138.850,0354,010.0,     ,      ,      ,       ,    ,2022-10-31,9999-99-99
42221,田代　　　　　　　　,ﾀｼﾛ            ,TASHIRO                       ,　　　　　　　　　　,               ,                              ,36.463,138.463,1230,009.9,     ,      ,      ,       ,    ,2022-10-31,9999-99-99
42251,前橋　　　　　　　　,ﾏｴﾊﾞｼ          ,MAEBASHI                      ,前橋　　　　　　　　,ﾏｴﾊﾞｼ          ,MAEBASHI                      ,36.405,139.060,0112,012.6,     ,      ,36.405,139.060,0112,2022-10-31,9999-99-99
42266,桐生　　　　　　　　,ｷﾘｭｳ           ,KIRYU                         ,　　　　　　　　　　,               ,                              ,36.410,139.325,0117,009.9,     ,      ,      ,       ,    ,2022-10-31,9999-99-99
42326,西野牧　　　　　　　,ﾆｼﾉﾏｷ          ,NISHI-NOMAKI                  ,　　　　　　　　　　,               ,                              ,36.245,138.707,0375,010.0,     ,      ,      ,       ,    ,2022-10-31,9999-99-99
42366,館林　　　　　　　　,ﾀﾃﾊﾞﾔｼ         ,TATEBAYASHI                   ,　　　　　　　　　　,               ,                              ,36.240,139.513,0023,010.1,     ,      ,      ,       ,    ,2022-10-31,9999-99-99
43051,寄居　　　　　　　　,ﾖﾘｲ            ,YORII                         ,　　　　　　　　　　,               ,                              ,36.105,139.183,0128,010.0,     ,      ,      ,       ,    ,2022-10-31,9999-99-99
43056,熊谷　　　　　　　　,ｸﾏｶﾞﾔ          ,KUMAGAYA                      ,熊谷　　　　　　　　,ｸﾏｶﾞﾔ          ,KUMAGAYA                      ,36.150,139.380,0030,016.7,     ,      ,36.150,139.380,0030,2022-10-31,9999-99-99
43126,久喜　　　　　　　　,ｸｷ             ,KUKI                          ,　　　　　　　　　　,               ,                              ,36.087,139.635,0012,010.0,     ,      ,      ,       ,    ,2022-10-31,9999-99-99
43156,秩父　　　　　　　　,ﾁﾁﾌﾞ           ,CHICHIBU                      ,秩父　　　　　　　　,ﾁﾁﾌﾞ           ,CHICHIBU                      ,35.990,139.073,0232,017.2,     ,      ,35.990,139.073,0232,2022-10-31,9999-99-99
43171,鳩山　　　　　　　　,ﾊﾄﾔﾏ           ,HATOYAMA                      ,　　　　　　　　　　,               ,                              ,35.985,139.335,0044,006.5,     ,      ,      ,       ,    ,2022-10-31,9999-99-99
43241,さいたま　　　　　　,ｻｲﾀﾏ           ,SAITAMA                       ,さいたま　　　　　　,ｻｲﾀﾏ           ,SAITAMA                       ,35.875,139.587,0008,009.9,     ,      ,35.875,139.587,0008,2022-10-31,9999-99-99
43256,越谷　　　　　　　　,ｺｼｶﾞﾔ          ,KOSHIGAYA                     ,　　　　　　　　　　,               ,                              ,35.883,139.757,0003,010.0,     ,      ,      ,       ,    ,2022-10-31,9999-99-99
44046,小河内　　　　　　　,ｵｺﾞｳﾁ          ,OGOCHI                        ,　　　　　　　　　　,               ,                              ,35.792,139.050,0530,009.9,     ,      ,      ,       ,    ,2022-10-31,9999-99-99
44071,練馬　　　　　　　　,ﾈﾘﾏ            ,NERIMA                        ,　　　　　　　　　　,               ,                              ,35.738,139.592,0051,011.3,     ,      ,      ,       ,    ,2022-10-31,9999-99-99
44112,八王子　　　　　　　,ﾊﾁｵｳｼﾞ         ,HACHIOJI                      ,　　　　　　　　　　,               ,                              ,35.667,139.317,0123,049.8,     ,      ,      ,       ,    ,2022-10-31,9999-99-99
44116,府中　　　　　　　　,ﾌﾁｭｳ           ,FUCHU                         ,　　　　　　　　　　,               ,                              ,35.683,139.483,0059,009.3,     ,      ,      ,       ,    ,2022-10-31,9999-99-99
44132,東京　　　　　　　　,ﾄｳｷｮｳ          ,TOKYO                         ,東京　　　　　　　　,ﾄｳｷｮｳ          ,TOKYO                         ,35.692,139.750,0025,035.3,     ,      ,35.692,139.750,0025,2022-10-31,9999-99-99
44172,大島　　　　　　　　,ｵｵｼﾏ           ,OSHIMA                        ,　　　　　　　　　　,               ,                              ,34.748,139.362,0074,027.1,     ,      ,      ,       ,    ,2022-10-31,9999-99-99
44226,三宅島　　　　　　　,ﾐﾔｹｼﾞﾏ         ,MIYAKEJIMA                    ,　　　　　　　　　　,               ,                              ,34.123,139.520,0038,013.2,     ,      ,      ,       ,    ,2022-10-31,9999-99-99
44263,八丈島　　　　　　　,ﾊﾁｼﾞｮｳｼﾞﾏ      ,HACHIJOJIMA                   ,　　　　　　　　　　,               ,                              ,33.122,139.778,0151,018.1,     ,      ,      ,       ,    ,2022-10-31,9999-99-99
44301,父島　　　　　　　　,ﾁﾁｼﾞﾏ          ,CHICHIJIMA                    ,　　　　　　　　　　,               ,                              ,27.092,142.190,0003,015.8,     ,      ,      ,       ,    ,2022-10-31,9999-99-99
44356,南鳥島　　　　　　　,ﾐﾅﾐﾄﾘｼﾏ        ,MINAMITORISHIMA               ,　　　　　　　　　　,               ,                              ,24.288,153.983,0007,015.8,     ,      ,      ,       ,    ,2022-10-31,9999-99-99
45061,我孫子　　　　　　　,ｱﾋﾞｺ           ,ABIKO                         ,　　　　　　　　　　,               ,                              ,35.863,140.110,0020,010.0,     ,      ,      ,       ,    ,2022-10-31,9999-99-99
45081,香取　　　　　　　　,ｶﾄﾘ            ,KATORI                        ,　　　　　　　　　　,               ,                              ,35.858,140.502,0037,007.8,     ,      ,      ,       ,    ,2022-10-31,9999-99-99
45106,船橋　　　　　　　　,ﾌﾅﾊﾞｼ          ,FUNABASHI                     ,　　　　　　　　　　,               ,                              ,35.712,140.043,0028,007.9,     ,      ,      ,       ,    ,2022-10-31,9999-99-99
45116,佐倉　　　　　　　　,ｻｸﾗ            ,SAKURA                        ,　　　　　　　　　　,               ,                              ,35.728,140.212,0005,010.3,     ,      ,      ,       ,    ,2022-10-31,9999-99-99
45148,銚子　　　　　　　　,ﾁｮｳｼ           ,CHOSHI                        ,銚子　　　　　　　　,ﾁｮｳｼ           ,CHOSHI                        ,35.738,140.857,0020,010.0,     ,      ,35.738,140.857,0020,2022-10-31,9999-99-99
45181,横芝光　　　　　　　,ﾖｺｼﾊﾞﾋｶﾘ       ,YOKOSHIBA-HIKARI              ,　　　　　　　　　　,               ,                              ,35.655,140.505,0005,010.2,     ,      ,      ,       ,    ,2022-10-31,9999-99-99
45212,千葉　　　　　　　　,ﾁﾊﾞ            ,CHIBA                         ,千葉　　　　　　　　,ﾁﾊﾞ            ,CHIBA                         ,35.602,140.103,0003,047.9,     ,      ,35.602,140.103,0003,2022-10-31,9999-99-99
45261,茂原　　　　　　　　,ﾓﾊﾞﾗ           ,MOBARA                        ,　　　　　　　　　　,               ,                              ,35.437,140.293,0011,009.9,     ,      ,      ,       ,    ,2022-10-31,9999-99-99
45282,木更津　　　　　　　,ｷｻﾗﾂﾞ          ,KISARAZU                      ,　　　　　　　　　　,               ,                              ,35.362,139.940,0060,010.0,     ,      ,      ,       ,    ,2022-10-31,9999-99-99
45291,牛久　　　　　　　　,ｳｼｸ            ,USHIKU                        ,　　　　　　　　　　,               ,                              ,35.397,140.148,0030,009.3,     ,      ,      ,       ,    ,2022-10-31,9999-99-99
45326,坂畑　　　　　　　　,ｻｶﾊﾀ           ,SAKAHATA                      ,　　　　　　　　　　,               ,                              ,35.235,140.098,0120,009.9,     ,      ,      ,       ,    ,2022-10-31,9999-99-99
45361,鴨川　　　　　　　　,ｶﾓｶﾞﾜ          ,KAMOGAWA                      ,　　　　　　　　　　,               ,                              ,35.112,140.100,0005,009.9,     ,      ,      ,       ,    ,2022-10-31,9999-99-99
45371,勝浦　　　　　　　　,ｶﾂｳﾗ           ,KATSUURA                      ,　　　　　　　　　　,               ,                              ,35.150,140.312,0012,015.2,     ,      ,      ,       ,    ,2022-10-31,9999-99-99
45401,館山　　　　　　　　,ﾀﾃﾔﾏ           ,TATEYAMA                      ,　　　　　　　　　　,               ,                              ,34.987,139.865,0006,021.8,     ,      ,      ,       ,    ,2022-10-31,9999-99-99
46091,海老名　　　　　　　,ｴﾋﾞﾅ           ,EBINA                         ,　　　　　　　　　　,               ,                              ,35.433,139.387,0018,006.5,     ,      ,      ,       ,    ,2022-10-31,9999-99-99
46106,横浜　　　　　　　　,ﾖｺﾊﾏ           ,YOKOHAMA                      ,横浜　　　　　　　　,ﾖｺﾊﾏ           ,YOKOHAMA                      ,35.438,139.652,0039,019.8,     ,      ,35.438,139.652,0039,2022-10-31,9999-99-99
46141,辻堂　　　　　　　　,ﾂｼﾞﾄﾞｳ         ,TSUJIDO                       ,　　　　　　　　　　,               ,                              ,35.320,139.450,0005,009.9,     ,      ,      ,       ,    ,2022-10-31,9999-99-99
46166,小田原　　　　　　　,ｵﾀﾞﾜﾗ          ,ODAWARA                       ,　　　　　　　　　　,               ,                              ,35.277,139.155,0014,009.9,     ,      ,      ,       ,    ,2022-10-31,9999-99-99
46211,三浦　　　　　　　　,ﾐｳﾗ            ,MIURA                         ,　　　　　　　　　　,               ,                              ,35.178,139.630,0042,009.9,     ,      ,      ,       ,    ,2022-10-31,9999-99-99
48031,野沢温泉　　　　　　,ﾉｻﾞﾜｵﾝｾﾝ       ,NOZAWAONSEN                   ,野沢温泉　　　　　　,ﾉｻﾞﾜｵﾝｾﾝ       ,NOZAWAONSEN                   ,36.912,138.442,0576,010.0,     ,      ,36.912,138.442,0576,2022-10-31,9999-99-99
48066,飯山　　　　　　　　,ｲｲﾔﾏ           ,IIYAMA                        ,飯山　　　　　　　　,ｲｲﾔﾏ           ,IIYAMA                        ,36.875,138.375,0313,009.9,     ,      ,36.875,138.375,0313,2022-10-31,9999-99-99
48156,長野　　　　　　　　,ﾅｶﾞﾉ           ,NAGANO                        ,長野　　　　　　　　,ﾅｶﾞﾉ           ,NAGANO                        ,36.662,138.192,0418,018.8,     ,      ,36.662,138.192,0418,2022-10-31,9999-99-99
48191,大町　　　　　　　　,ｵｵﾏﾁ           ,OMACHI                        ,大町　　　　　　　　,ｵｵﾏﾁ           ,OMACHI                        ,36.523,137.832,0784,010.0,     ,      ,36.523,137.832,0784,2022-10-31,9999-99-99
48216,菅平　　　　　　　　,ｽｶﾞﾀﾞｲﾗ        ,SUGADAIRA                     ,菅平　　　　　　　　,ｽｶﾞﾀﾞｲﾗ        ,SUGADAIRA                     ,36.532,138.325,1253,010.0,     ,      ,36.532,138.325,1253,2022-10-31,9999-99-99
48256,上田　　　　　　　　,ｳｴﾀﾞ           ,UEDA                          ,　　　　　　　　　　,               ,                              ,36.400,138.265,0502,006.5,     ,      ,      ,       ,    ,2022-10-31,9999-99-99
48321,東御　　　　　　　　,ﾄｳﾐ            ,TOMI                          ,　　　　　　　　　　,               ,                              ,36.383,138.383,0958,010.0,     ,      ,      ,       ,    ,2022-10-31,9999-99-99
48331,軽井沢　　　　　　　,ｶﾙｲｻﾞﾜ         ,KARUIZAWA                     ,軽井沢　　　　　　　,ｶﾙｲｻﾞﾜ         ,KARUIZAWA                     ,36.342,138.547,0999,018.5,     ,      ,36.342,138.547,0999,2022-10-31,9999-99-99
48361,松本　　　　　　　　,ﾏﾂﾓﾄ           ,MATSUMOTO                     ,松本　　　　　　　　,ﾏﾂﾓﾄ           ,MATSUMOTO                     ,36.247,137.970,0610,017.6,     ,      ,36.247,137.970,0610,2022-10-31,9999-99-99
48466,奈川　　　　　　　　,ﾅｶﾞﾜ           ,NAGAWA                        ,　　　　　　　　　　,               ,                              ,36.088,137.683,1068,010.0,     ,      ,      ,       ,    ,2022-10-31,9999-99-99
48491,諏訪　　　　　　　　,ｽﾜ             ,SUWA                          ,諏訪　　　　　　　　,ｽﾜ             ,SUWA                          ,36.045,138.108,0760,010.8,     ,      ,36.045,138.108,0760,2022-10-31,9999-99-99
48531,開田高原　　　　　　,ｶｲﾀﾞｺｳｹﾞﾝ      ,KAIDAKOGEN                    ,開田高原　　　　　　,ｶｲﾀﾞｺｳｹﾞﾝ      ,KAIDAKOGEN                    ,35.938,137.602,1130,009.9,     ,      ,35.938,137.602,1130,2022-10-31,9999-99-99
48606,木曽福島　　　　　　,ｷｿﾌｸｼﾏ         ,KISOFUKUSHIMA                 ,　　　　　　　　　　,               ,                              ,35.840,137.688,0750,008.2,     ,      ,      ,       ,    ,2022-10-31,9999-99-99
48717,南木曽　　　　　　　,ﾅｷﾞｿ           ,NAGISO                        ,　　　　　　　　　　,               ,                              ,35.610,137.620,0560,009.9,     ,      ,      ,       ,    ,2022-10-31,9999-99-99
48731,飯島　　　　　　　　,ｲｲｼﾞﾏ          ,IIJIMA                        ,　　　　　　　　　　,               ,                              ,35.653,137.898,0728,010.0,     ,      ,      ,       ,    ,2022-10-31,9999-99-99
48767,飯田　　　　　　　　,ｲｲﾀﾞ           ,IIDA                          ,飯田　　　　　　　　,ｲｲﾀﾞ           ,IIDA                          ,35.523,137.822,0516,036.1,     ,      ,35.523,137.822,0516,2022-10-31,9999-99-99
48826,浪合　　　　　　　　,ﾅﾐｱｲ           ,NAMIAI                        ,　　　　　　　　　　,               ,                              ,35.373,137.692,0940,010.0,     ,      ,      ,       ,    ,2022-10-31,9999-99-99
49086,韮崎　　　　　　　　,ﾆﾗｻｷ           ,NIRASAKI                      ,　　　　　　　　　　,               ,                              ,35.693,138.448,0341,006.6,     ,      ,      ,       ,    ,2022-10-31,9999-99-99
49142,甲府　　　　　　　　,ｺｳﾌ            ,KOFU                          ,甲府　　　　　　　　,ｺｳﾌ            ,KOFU                          ,35.667,138.553,0273,026.9,     ,      ,35.667,138.553,0273,2022-10-31,9999-99-99
49151,勝沼　　　　　　　　,ｶﾂﾇﾏ           ,KATSUNUMA                     ,　　　　　　　　　　,               ,                              ,35.663,138.725,0394,009.5,     ,      ,      ,       ,    ,2022-10-31,9999-99-99
49161,大月　　　　　　　　,ｵｵﾂｷ           ,OTSUKI                        ,　　　　　　　　　　,               ,                              ,35.608,138.938,0364,009.9,     ,      ,      ,       ,    ,2022-10-31,9999-99-99
49196,古関　　　　　　　　,ﾌﾙｾｷ           ,FURUSEKI                      ,　　　　　　　　　　,               ,                              ,35.528,138.615,0552,010.3,     ,      ,      ,       ,    ,2022-10-31,9999-99-99
49251,河口湖　　　　　　　,ｶﾜｸﾞﾁｺ         ,KAWAGUCHI-KO                  ,河口湖　　　　　　　,ｶﾜｸﾞﾁｺ         ,KAWAGUCHI-KO                  ,35.500,138.760,0860,015.1,     ,      ,35.500,138.760,0860,2022-10-31,9999-99-99
49316,南部　　　　　　　　,ﾅﾝﾌﾞ           ,NAMBU                         ,　　　　　　　　　　,               ,                              ,35.288,138.445,0141,009.2,     ,      ,      ,       ,    ,2022-10-31,9999-99-99
50066,富士山　　　　　　　,ﾌｼﾞｻﾝ          ,FUJISAN                       ,　　　　　　　　　　,               ,                              ,35.360,138.727,3775,     ,     ,      ,      ,       ,    ,2022-10-31,9999-99-99
50106,井川　　　　　　　　,ｲｶﾜ            ,IKAWA                         ,　　　　　　　　　　,               ,                              ,35.217,138.222,0755,010.0,     ,      ,      ,       ,    ,2022-10-31,9999-99-99
50136,御殿場　　　　　　　,ｺﾞﾃﾝﾊﾞ         ,GOTEMBA                       ,　　　　　　　　　　,               ,                              ,35.305,138.927,0472,010.1,     ,      ,      ,       ,    ,2022-10-31,9999-99-99
50196,富士　　　　　　　　,ﾌｼﾞ            ,FUJI                          ,　　　　　　　　　　,               ,                              ,35.185,138.663,0066,009.9,     ,      ,      ,       ,    ,2022-10-31,9999-99-99
50206,三島　　　　　　　　,ﾐｼﾏ            ,MISHIMA                       ,　　　　　　　　　　,               ,                              ,35.113,138.925,0021,015.8,     ,      ,      ,       ,    ,2022-10-31,9999-99-99
50226,佐久間　　　　　　　,ｻｸﾏ            ,SAKUMA                        ,　　　　　　　　　　,               ,                              ,35.057,137.762,0150,010.0,     ,      ,      ,       ,    ,2022-10-31,9999-99-99
50241,川根本町　　　　　　,ｶﾜﾈﾎﾝﾁｮｳ       ,KAWANEHONCHO                  ,　　　　　　　　　　,               ,                              ,35.102,138.128,0290,009.9,     ,      ,      ,       ,    ,2022-10-31,9999-99-99
50261,清水　　　　　　　　,ｼﾐｽﾞ           ,SHIMIZU                       ,　　　　　　　　　　,               ,                              ,35.053,138.522,0003,008.4,     ,      ,      ,       ,    ,2022-10-31,9999-99-99
50281,網代　　　　　　　　,ｱｼﾞﾛ           ,AJIRO                         ,　　　　　　　　　　,               ,                              ,35.045,139.092,0067,012.5,     ,      ,      ,       ,    ,2022-10-31,9999-99-99
50331,静岡　　　　　　　　,ｼｽﾞｵｶ          ,SHIZUOKA                      ,静岡　　　　　　　　,ｼｽﾞｵｶ          ,SHIZUOKA                      ,34.975,138.403,0014,016.0,     ,      ,34.975,138.403,0014,2022-10-31,9999-99-99
50386,天竜　　　　　　　　,ﾃﾝﾘｭｳ          ,TENRYU                        ,　　　　　　　　　　,               ,                              ,34.890,137.813,0061,010.0,     ,      ,      ,       ,    ,2022-10-31,9999-99-99
50456,浜松　　　　　　　　,ﾊﾏﾏﾂ           ,HAMAMATSU                     ,　　　　　　　　　　,               ,                              ,34.753,137.712,0046,016.8,     ,      ,      ,       ,    ,2022-10-31,9999-99-99
50476,菊川牧之原　　　　　,ｷｸｶﾞﾜﾏｷﾉﾊﾗ     ,KIKUGAWA-MAKINOHARA           ,　　　　　　　　　　,               ,                              ,34.785,138.138,0191,010.1,     ,      ,      ,       ,    ,2022-10-31,9999-99-99
50491,松崎　　　　　　　　,ﾏﾂｻﾞｷ          ,MATSUZAKI                     ,　　　　　　　　　　,               ,                              ,34.755,138.783,0004,010.0,     ,      ,      ,       ,    ,2022-10-31,9999-99-99
50506,稲取　　　　　　　　,ｲﾅﾄﾘ           ,INATORI                       ,　　　　　　　　　　,               ,                              ,34.782,139.048,0130,010.0,     ,      ,      ,       ,    ,2022-10-31,9999-99-99
50536,磐田　　　　　　　　,ｲﾜﾀ            ,IWATA                         ,　　　　　　　　　　,               ,                              ,34.692,137.880,0001,010.2,     ,      ,      ,       ,    ,2022-10-31,9999-99-99
50551,御前崎　　　　　　　,ｵﾏｴｻﾞｷ         ,OMAEZAKI                      ,　　　　　　　　　　,               ,                              ,34.603,138.213,0045,016.0,     ,      ,      ,       ,    ,2022-10-31,9999-99-99
50561,石廊崎　　　　　　　,ｲﾛｳｻﾞｷ         ,IROZAKI                       ,　　　　　　　　　　,               ,                              ,34.603,138.842,0052,015.0,     ,      ,      ,       ,    ,2022-10-31,9999-99-99
51031,愛西　　　　　　　　,ｱｲｻｲ           ,AISAI                         ,　　　　　　　　　　,               ,                              ,35.217,136.698,0005,010.3,     ,      ,      ,       ,    ,2022-10-31,9999-99-99
51071,稲武　　　　　　　　,ｲﾅﾌﾞ           ,INABU                         ,　　　　　　　　　　,               ,                              ,35.212,137.507,0505,009.9,     ,      ,      ,       ,    ,2022-10-31,9999-99-99
51106,名古屋　　　　　　　,ﾅｺﾞﾔ           ,NAGOYA                        ,名古屋　　　　　　　,ﾅｺﾞﾔ           ,NAGOYA                        ,35.167,136.965,0051,017.8,     ,      ,35.167,136.965,0051,2022-10-31,9999-99-99
51116,豊田　　　　　　　　,ﾄﾖﾀ            ,TOYOTA                        ,　　　　　　　　　　,               ,                              ,35.132,137.177,0075,006.6,     ,      ,      ,       ,    ,2022-10-31,9999-99-99
51216,大府　　　　　　　　,ｵｵﾌﾞ           ,OBU                           ,　　　　　　　　　　,               ,                              ,34.995,136.943,0032,009.9,     ,      ,      ,       ,    ,2022-10-31,9999-99-99
51226,岡崎　　　　　　　　,ｵｶｻﾞｷ          ,OKAZAKI                       ,　　　　　　　　　　,               ,                              ,34.918,137.193,0047,006.3,     ,      ,      ,       ,    ,2022-10-31,9999-99-99
51247,新城　　　　　　　　,ｼﾝｼﾛ           ,SHINSHIRO                     ,　　　　　　　　　　,               ,                              ,34.907,137.518,0053,006.3,     ,      ,      ,       ,    ,2022-10-31,9999-99-99
51281,蒲郡　　　　　　　　,ｶﾞﾏｺﾞｵﾘ        ,GAMAGORI                      ,　　　　　　　　　　,               ,                              ,34.845,137.217,0055,009.9,     ,      ,      ,       ,    ,2022-10-31,9999-99-99
51311,南知多　　　　　　　,ﾐﾅﾐﾁﾀ          ,MINAMI-CHITA                  ,　　　　　　　　　　,               ,                              ,34.740,136.938,0016,006.4,     ,      ,      ,       ,    ,2022-10-31,9999-99-99
51331,豊橋　　　　　　　　,ﾄﾖﾊｼ           ,TOYOHASHI                     ,　　　　　　　　　　,               ,                              ,34.750,137.342,0003,006.5,     ,      ,      ,       ,    ,2022-10-31,9999-99-99
51346,伊良湖　　　　　　　,ｲﾗｺ            ,IRAKO                         ,　　　　　　　　　　,               ,                              ,34.628,137.093,0006,010.7,     ,      ,      ,       ,    ,2022-10-31,9999-99-99
52051,神岡　　　　　　　　,ｶﾐｵｶ           ,KAMIOKA                       ,神岡　　　　　　　　,ｶﾐｵｶ           ,KAMIOKA                       ,36.322,137.308,0455,010.0,     ,      ,36.322,137.308,0455,2022-10-31,9999-99-99
52146,高山　　　　　　　　,ﾀｶﾔﾏ           ,TAKAYAMA                      ,高山　　　　　　　　,ﾀｶﾔﾏ           ,TAKAYAMA                      ,36.155,137.253,0560,018.1,     ,      ,36.155,137.253,0560,2022-10-31,9999-99-99
52221,長滝　　　　　　　　,ﾅｶﾞﾀｷ          ,NAGATAKI                      ,長滝　　　　　　　　,ﾅｶﾞﾀｷ          ,NAGATAKI                      ,35.923,136.832,0430,009.9,     ,      ,35.923,136.832,0430,2022-10-31,9999-99-99
52286,萩原　　　　　　　　,ﾊｷﾞﾜﾗ          ,HAGIWARA                      ,　　　　　　　　　　,               ,                              ,35.888,137.207,0425,010.1,     ,      ,      ,       ,    ,2022-10-31,9999-99-99
52381,樽見　　　　　　　　,ﾀﾙﾐ            ,TARUMI                        ,樽見　　　　　　　　,ﾀﾙﾐ            ,TARUMI                        ,35.638,136.602,0190,009.9,     ,      ,35.638,136.602,0190,2022-10-31,9999-99-99
52406,金山　　　　　　　　,ｶﾅﾔﾏ           ,KANAYAMA                      ,　　　　　　　　　　,               ,                              ,35.662,137.160,0233,010.0,     ,      ,      ,       ,    ,2022-10-31,9999-99-99
52461,美濃　　　　　　　　,ﾐﾉ             ,MINO                          ,　　　　　　　　　　,               ,                              ,35.555,136.910,0068,010.0,     ,      ,      ,       ,    ,2022-10-31,9999-99-99
52511,揖斐川　　　　　　　,ｲﾋﾞｶﾞﾜ         ,IBIGAWA                       ,　　　　　　　　　　,               ,                              ,35.485,136.567,0045,010.0,     ,      ,      ,       ,    ,2022-10-31,9999-99-99
52536,美濃加茂　　　　　　,ﾐﾉｶﾓ           ,MINO-KAMO                     ,　　　　　　　　　　,               ,                              ,35.445,137.005,0074,009.9,     ,      ,      ,       ,    ,2022-10-31,9999-99-99
52556,恵那　　　　　　　　,ｴﾅ             ,ENA                           ,　　　　　　　　　　,               ,                              ,35.447,137.403,0315,009.9,     ,      ,      ,       ,    ,2022-10-31,9999-99-99
52557,中津川　　　　　　　,ﾅｶﾂｶﾞﾜ         ,NAKATSUGAWA                   ,　　　　　　　　　　,               ,                              ,35.477,137.487,0378,010.0,     ,      ,      ,       ,    ,2022-10-31,9999-99-99
52571,関ケ原　　　　　　　,ｾｷｶﾞﾊﾗ         ,SEKIGAHARA                    ,関ケ原　　　　　　　,ｾｷｶﾞﾊﾗ         ,SEKIGAHARA                    ,35.363,136.467,0130,010.1,     ,      ,35.363,136.467,0130,2022-10-31,9999-99-99
52586,岐阜　　　　　　　　,ｷﾞﾌ            ,GIFU                          ,岐阜　　　　　　　　,ｷﾞﾌ            ,GIFU                          ,35.400,136.762,0013,023.0,     ,      ,35.400,136.762,0013,2022-10-31,9999-99-99
53041,桑名　　　　　　　　,ｸﾜﾅ            ,KUWANA                        ,　　　　　　　　　　,               ,                              ,35.050,136.693,0003,009.9,     ,      ,      ,       ,    ,2022-10-31,9999-99-99
53061,四日市　　　　　　　,ﾖｯｶｲﾁ          ,YOKKAICHI                     ,　　　　　　　　　　,               ,                              ,34.940,136.580,0055,010.7,     ,      ,      ,       ,    ,2022-10-31,9999-99-99
53091,亀山　　　　　　　　,ｶﾒﾔﾏ           ,KAMEYAMA                      ,　　　　　　　　　　,               ,                              ,34.870,136.453,0070,010.0,     ,      ,      ,       ,    ,2022-10-31,9999-99-99
53112,上野　　　　　　　　,ｳｴﾉ            ,UENO                          ,　　　　　　　　　　,               ,                              ,34.762,136.142,0159,022.1,     ,      ,      ,       ,    ,2022-10-31,9999-99-99
53133,津　　　　　　　　　,ﾂ              ,TSU                           ,津　　　　　　　　　,ﾂ              ,TSU                           ,34.733,136.518,0003,015.0,     ,      ,34.733,136.518,0003,2022-10-31,9999-99-99
53196,小俣　　　　　　　　,ｵﾊﾞﾀ           ,OBATA                         ,　　　　　　　　　　,               ,                              ,34.528,136.665,0010,010.0,     ,      ,      ,       ,    ,2022-10-31,9999-99-99
53231,粥見　　　　　　　　,ｶﾕﾐ            ,KAYUMI                        ,　　　　　　　　　　,               ,                              ,34.448,136.390,0120,010.0,     ,      ,      ,       ,    ,2022-10-31,9999-99-99
53257,鳥羽　　　　　　　　,ﾄﾊﾞ            ,TOBA                          ,　　　　　　　　　　,               ,                              ,34.482,136.825,0002,009.0,     ,      ,      ,       ,    ,2022-10-31,9999-99-99
53296,南伊勢　　　　　　　,ﾐﾅﾐｲｾ          ,MINAMI-ISE                    ,　　　　　　　　　　,               ,                              ,34.345,136.682,0006,010.0,     ,      ,      ,       ,    ,2022-10-31,9999-99-99
53326,紀伊長島　　　　　　,ｷｲﾅｶﾞｼﾏ        ,KII-NAGASHIMA                 ,　　　　　　　　　　,               ,                              ,34.208,136.327,0003,009.9,     ,      ,      ,       ,    ,2022-10-31,9999-99-99
53378,尾鷲　　　　　　　　,ｵﾜｾ            ,OWASE                         ,　　　　　　　　　　,               ,                              ,34.068,136.193,0015,028.4,     ,      ,      ,       ,    ,2022-10-31,9999-99-99
53401,熊野新鹿　　　　　　,ｸﾏﾉｱﾀｼｶ        ,KUMANOATASHIKA                ,　　　　　　　　　　,               ,                              ,33.932,136.138,0023,006.4,     ,      ,      ,       ,    ,2022-10-31,9999-99-99
54041,弾崎　　　　　　　　,ﾊｼﾞｷｻﾞｷ        ,HAJIKIZAKI                    ,　　　　　　　　　　,               ,                              ,38.330,138.512,0058,008.0,     ,      ,      ,       ,    ,2022-10-31,9999-99-99
54086,村上　　　　　　　　,ﾑﾗｶﾐ           ,MURAKAMI                      ,　　　　　　　　　　,               ,                              ,38.227,139.478,0010,008.3,     ,      ,      ,       ,    ,2022-10-31,9999-99-99
54157,相川　　　　　　　　,ｱｲｶﾜ           ,AIKAWA                        ,相川　　　　　　　　,ｱｲｶﾜ           ,AIKAWA                        ,38.028,138.240,0006,033.8,     ,      ,38.028,138.240,0006,2022-10-31,9999-99-99
54191,下関　　　　　　　　,ｼﾓｾｷ           ,SHIMOSEKI                     ,下関　　　　　　　　,ｼﾓｾｷ           ,SHIMOSEKI                     ,38.092,139.563,0033,010.0,     ,      ,38.092,139.563,0033,2022-10-31,9999-99-99
54232,新潟　　　　　　　　,ﾆｲｶﾞﾀ          ,NIIGATA                       ,新潟　　　　　　　　,ﾆｲｶﾞﾀ          ,NIIGATA                       ,37.893,139.018,0004,015.1,     ,      ,37.893,139.018,0004,2022-10-31,9999-99-99
54271,羽茂　　　　　　　　,ﾊﾓﾁ            ,HAMOCHI                       ,　　　　　　　　　　,               ,                              ,37.842,138.313,0011,010.0,     ,      ,      ,       ,    ,2022-10-31,9999-99-99
54296,新津　　　　　　　　,ﾆｲﾂ            ,NIITSU                        ,新津　　　　　　　　,ﾆｲﾂ            ,NIITSU                        ,37.792,139.087,0003,010.0,     ,      ,37.792,139.087,0003,2022-10-31,9999-99-99
54396,三条　　　　　　　　,ｻﾝｼﾞｮｳ         ,SANJO                         ,　　　　　　　　　　,               ,                              ,37.640,138.955,0009,012.4,     ,      ,      ,       ,    ,2022-10-31,9999-99-99
54421,津川　　　　　　　　,ﾂｶﾞﾜ           ,TSUGAWA                       ,津川　　　　　　　　,ﾂｶﾞﾜ           ,TSUGAWA                       ,37.672,139.447,0100,009.6,     ,      ,37.672,139.447,0100,2022-10-31,9999-99-99
54501,長岡　　　　　　　　,ﾅｶﾞｵｶ          ,NAGAOKA                       ,長岡　　　　　　　　,ﾅｶﾞｵｶ          ,NAGAOKA                       ,37.450,138.823,0023,009.4,     ,      ,37.450,138.823,0023,2022-10-31,9999-99-99
54541,柏崎　　　　　　　　,ｶｼﾜｻﾞｷ         ,KASHIWAZAKI                   ,柏崎　　　　　　　　,ｶｼﾜｻﾞｷ         ,KASHIWAZAKI                   ,37.352,138.553,0007,010.0,     ,      ,37.352,138.553,0007,2022-10-31,9999-99-99
54586,大潟　　　　　　　　,ｵｵｶﾞﾀ          ,OGATA                         ,　　　　　　　　　　,               ,                              ,37.225,138.325,0013,010.0,     ,      ,      ,       ,    ,2022-10-31,9999-99-99
54651,高田　　　　　　　　,ﾀｶﾀﾞ           ,TAKADA                        ,高田　　　　　　　　,ﾀｶﾀﾞ           ,TAKADA                        ,37.107,138.247,0013,018.0,     ,      ,37.107,138.247,0013,2022-10-31,9999-99-99
54721,能生　　　　　　　　,ﾉｳ             ,NO                            ,能生　　　　　　　　,ﾉｳ             ,NO                            ,37.083,138.023,0055,010.3,     ,      ,37.083,138.023,0055,2022-10-31,9999-99-99
54836,津南　　　　　　　　,ﾂﾅﾝ            ,TSUNAN                        ,津南　　　　　　　　,ﾂﾅﾝ            ,TSUNAN                        ,36.997,138.683,0452,010.0,     ,      ,36.997,138.683,0452,2022-10-31,9999-99-99
55022,朝日　　　　　　　　,ｱｻﾋ            ,ASAHI                         ,朝日　　　　　　　　,ｱｻﾋ            ,ASAHI                         ,36.937,137.563,0043,010.1,     ,      ,36.937,137.563,0043,2022-10-31,9999-99-99
55041,氷見　　　　　　　　,ﾋﾐ             ,HIMI                          ,氷見　　　　　　　　,ﾋﾐ             ,HIMI                          ,36.825,136.968,0001,010.2,     ,      ,36.825,136.968,0001,2022-10-31,9999-99-99
55056,魚津　　　　　　　　,ｳｵﾂﾞ           ,UOZU                          ,魚津　　　　　　　　,ｳｵﾂﾞ           ,UOZU                          ,36.822,137.428,0048,010.2,     ,      ,36.822,137.428,0048,2022-10-31,9999-99-99
55091,伏木　　　　　　　　,ﾌｼｷ            ,FUSHIKI                       ,伏木　　　　　　　　,ﾌｼｷ            ,FUSHIKI                       ,36.792,137.055,0012,015.3,     ,      ,36.792,137.055,0012,2022-10-31,9999-99-99
55102,富山　　　　　　　　,ﾄﾔﾏ            ,TOYAMA                        ,富山　　　　　　　　,ﾄﾔﾏ            ,TOYAMA                        ,36.708,137.202,0009,020.0,     ,      ,36.708,137.202,0009,2022-10-31,9999-99-99
55141,砺波　　　　　　　　,ﾄﾅﾐ            ,TONAMI                        ,砺波　　　　　　　　,ﾄﾅﾐ            ,TONAMI                        ,36.610,136.955,0069,006.5,     ,      ,36.610,136.955,0069,2022-10-31,9999-99-99
55191,南砺高宮　　　　　　,ﾅﾝﾄﾀｶﾐﾔ        ,NANTOTAKAMIYA                 ,　　　　　　　　　　,               ,                              ,36.545,136.872,0091,010.0,     ,      ,      ,       ,    ,2022-10-31,9999-99-99
55206,八尾　　　　　　　　,ﾔﾂｵ            ,YATSUO                        ,　　　　　　　　　　,               ,                              ,36.570,137.158,0124,010.0,     ,      ,      ,       ,    ,2022-10-31,9999-99-99
56036,珠洲　　　　　　　　,ｽｽﾞ            ,SUZU                          ,珠洲　　　　　　　　,ｽｽﾞ            ,SUZU                          ,37.447,137.287,0004,007.5,     ,      ,37.447,137.287,0004,2022-10-31,9999-99-99
56052,輪島　　　　　　　　,ﾜｼﾞﾏ           ,WAJIMA                        ,輪島　　　　　　　　,ﾜｼﾞﾏ           ,WAJIMA                        ,37.390,136.895,0005,028.1,     ,      ,37.390,136.895,0005,2022-10-31,9999-99-99
56116,志賀　　　　　　　　,ｼｶ             ,SHIKA                         ,　　　　　　　　　　,               ,                              ,37.143,136.725,0006,008.5,     ,      ,      ,       ,    ,2022-10-31,9999-99-99
56146,七尾　　　　　　　　,ﾅﾅｵ            ,NANAO                         ,七尾　　　　　　　　,ﾅﾅｵ            ,NANAO                         ,37.030,136.992,0058,010.0,     ,      ,37.030,136.992,0058,2022-10-31,9999-99-99
56176,羽咋　　　　　　　　,ﾊｸｲ            ,HAKUI                         ,　　　　　　　　　　,               ,                              ,36.893,136.777,0015,019.5,     ,      ,      ,       ,    ,2022-10-31,9999-99-99
56227,金沢　　　　　　　　,ｶﾅｻﾞﾜ          ,KANAZAWA                      ,金沢　　　　　　　　,ｶﾅｻﾞﾜ          ,KANAZAWA                      ,36.588,136.633,0006,048.4,     ,      ,36.588,136.633,0006,2022-10-31,9999-99-99
56286,白山河内　　　　　　,ﾊｸｻﾝｶﾜﾁ        ,HAKUSAN-KAWACHI               ,白山河内　　　　　　,ﾊｸｻﾝｶﾜﾁ        ,HAKUSAN-KAWACHI               ,36.397,136.620,0136,010.0,     ,      ,36.397,136.620,0136,2022-10-31,9999-99-99
56301,加賀中津原　　　　　,ｶｶﾞﾅｶﾂﾊﾗ       ,KAGA-NAKATSUHARA              ,加賀中津原　　　　　,ｶｶﾞﾅｶﾂﾊﾗ       ,KAGA-NAKATSUHARA              ,36.262,136.397,0065,010.0,     ,      ,36.262,136.397,0065,2022-10-31,9999-99-99
57051,越廼　　　　　　　　,ｺｼﾉ            ,KOSHINO                       ,　　　　　　　　　　,               ,                              ,36.012,135.990,0030,009.9,     ,      ,      ,       ,    ,2022-10-31,9999-99-99
57066,福井　　　　　　　　,ﾌｸｲ            ,FUKUI                         ,福井　　　　　　　　,ﾌｸｲ            ,FUKUI                         ,36.055,136.222,0009,026.1,     ,      ,36.055,136.222,0009,2022-10-31,9999-99-99
57121,大野　　　　　　　　,ｵｵﾉ            ,ONO                           ,大野　　　　　　　　,ｵｵﾉ            ,ONO                           ,35.972,136.497,0182,010.2,     ,      ,35.972,136.497,0182,2022-10-31,9999-99-99
57206,今庄　　　　　　　　,ｲﾏｼﾞｮｳ         ,IMAJO                         ,今庄　　　　　　　　,ｲﾏｼﾞｮｳ         ,IMAJO                         ,35.767,136.200,0128,010.0,     ,      ,35.767,136.200,0128,2022-10-31,9999-99-99
57248,敦賀　　　　　　　　,ﾂﾙｶﾞ           ,TSURUGA                       ,敦賀　　　　　　　　,ﾂﾙｶﾞ           ,TSURUGA                       ,35.653,136.062,0002,028.0,     ,      ,35.653,136.062,0002,2022-10-31,9999-99-99
57317,小浜　　　　　　　　,ｵﾊﾞﾏ           ,OBAMA                         ,小浜　　　　　　　　,ｵﾊﾞﾏ           ,OBAMA                         ,35.483,135.782,0010,024.9,     ,      ,35.483,135.782,0010,2022-10-31,9999-99-99
60051,今津　　　　　　　　,ｲﾏﾂﾞ           ,IMAZU                         ,今津　　　　　　　　,ｲﾏﾂﾞ           ,IMAZU                         ,35.412,136.028,0088,009.9,     ,      ,35.412,136.028,0088,2022-10-31,9999-99-99
60061,長浜　　　　　　　　,ﾅｶﾞﾊﾏ          ,NAGAHAMA                      ,　　　　　　　　　　,               ,                              ,35.423,136.242,0095,009.9,     ,      ,      ,       ,    ,2022-10-31,9999-99-99
60102,米原　　　　　　　　,ﾏｲﾊﾞﾗ          ,MAIBARA                       ,米原　　　　　　　　,ﾏｲﾊﾞﾗ          ,MAIBARA                       ,35.383,136.343,0147,006.4,     ,      ,35.383,136.343,0147,2022-10-31,9999-99-99
60116,南小松　　　　　　　,ﾐﾅﾐｺﾏﾂ         ,MINAMIKOMATSU                 ,　　　　　　　　　　,               ,                              ,35.235,135.957,0090,009.9,     ,      ,      ,       ,    ,2022-10-31,9999-99-99
60131,彦根　　　　　　　　,ﾋｺﾈ            ,HIKONE                        ,彦根　　　　　　　　,ﾋｺﾈ            ,HIKONE                        ,35.275,136.243,0087,019.7,     ,      ,35.275,136.243,0087,2022-10-31,9999-99-99
60196,東近江　　　　　　　,ﾋｶﾞｼｵｳﾐ        ,HIGASHIOMI                    ,　　　　　　　　　　,               ,                              ,35.062,136.190,0128,012.1,     ,      ,      ,       ,    ,2022-10-31,9999-99-99
60216,大津　　　　　　　　,ｵｵﾂ            ,OTSU                          ,大津　　　　　　　　,ｵｵﾂ            ,OTSU                          ,34.992,135.912,0086,009.9,     ,      ,34.992,135.912,0086,2022-10-31,9999-99-99
60226,信楽　　　　　　　　,ｼｶﾞﾗｷ          ,SHIGARAKI                     ,　　　　　　　　　　,               ,                              ,34.913,136.080,0265,009.9,     ,      ,      ,       ,    ,2022-10-31,9999-99-99
60236,土山　　　　　　　　,ﾂﾁﾔﾏ           ,TSUCHIYAMA                    ,　　　　　　　　　　,               ,                              ,34.938,136.278,0248,009.9,     ,      ,      ,       ,    ,2022-10-31,9999-99-99
61001,間人　　　　　　　　,ﾀｲｻﾞ           ,TAIZA                         ,　　　　　　　　　　,               ,                              ,35.737,135.087,0042,011.1,     ,      ,      ,       ,    ,2022-10-31,9999-99-99
61076,宮津　　　　　　　　,ﾐﾔﾂﾞ           ,MIYAZU                        ,　　　　　　　　　　,               ,                              ,35.550,135.235,0002,010.4,     ,      ,      ,       ,    ,2022-10-31,9999-99-99
61111,舞鶴　　　　　　　　,ﾏｲﾂﾞﾙ          ,MAIZURU                       ,舞鶴　　　　　　　　,ﾏｲﾂﾞﾙ          ,MAIZURU                       ,35.450,135.317,0002,041.6,     ,      ,35.450,135.317,0002,2022-10-31,9999-99-99
61187,福知山　　　　　　　,ﾌｸﾁﾔﾏ          ,FUKUCHIYAMA                   ,　　　　　　　　　　,               ,                              ,35.312,135.113,0017,009.5,     ,      ,      ,       ,    ,2022-10-31,9999-99-99
61206,美山　　　　　　　　,ﾐﾔﾏ            ,MIYAMA                        ,美山　　　　　　　　,ﾐﾔﾏ            ,MIYAMA                        ,35.275,135.550,0200,009.9,     ,      ,35.275,135.550,0200,2022-10-31,9999-99-99
61242,園部　　　　　　　　,ｿﾉﾍﾞ           ,SONOBE                        ,　　　　　　　　　　,               ,                              ,35.108,135.455,0134,009.2,     ,      ,      ,       ,    ,2022-10-31,9999-99-99
61286,京都　　　　　　　　,ｷｮｳﾄ           ,KYOTO                         ,京都　　　　　　　　,ｷｮｳﾄ           ,KYOTO                         ,35.013,135.732,0041,017.7,     ,      ,35.013,135.732,0041,2022-10-31,9999-99-99
61326,京田辺　　　　　　　,ｷｮｳﾀﾅﾍﾞ        ,KYOTANABE                     ,　　　　　　　　　　,               ,                              ,34.830,135.760,0020,009.9,     ,      ,      ,       ,    ,2022-10-31,9999-99-99
62016,能勢　　　　　　　　,ﾉｾ             ,NOSE                          ,　　　　　　　　　　,               ,                              ,34.948,135.455,0235,009.9,     ,      ,      ,       ,    ,2022-10-31,9999-99-99
62046,枚方　　　　　　　　,ﾋﾗｶﾀ           ,HIRAKATA                      ,　　　　　　　　　　,               ,                              ,34.808,135.672,0026,009.9,     ,      ,      ,       ,    ,2022-10-31,9999-99-99
62078,大阪　　　　　　　　,ｵｵｻｶ           ,OSAKA                         ,大阪　　　　　　　　,ｵｵｻｶ           ,OSAKA                         ,34.682,135.518,0023,024.0,     ,      ,34.682,135.518,0023,2022-10-31,9999-99-99
62081,生駒山　　　　　　　,ｲｺﾏﾔﾏ          ,IKOMAYAMA                     ,　　　　　　　　　　,               ,                              ,34.675,135.677,0626,009.2,     ,      ,      ,       ,    ,2022-10-31,9999-99-99
62091,堺　　　　　　　　　,ｻｶｲ            ,SAKAI                         ,　　　　　　　　　　,               ,                              ,34.555,135.485,0020,010.0,     ,      ,      ,       ,    ,2022-10-31,9999-99-99
62131,熊取　　　　　　　　,ｸﾏﾄﾘ           ,KUMATORI                      ,　　　　　　　　　　,               ,                              ,34.385,135.350,0068,009.9,     ,      ,      ,       ,    ,2022-10-31,9999-99-99
63016,香住　　　　　　　　,ｶｽﾐ            ,KASUMI                        ,香住　　　　　　　　,ｶｽﾐ            ,KASUMI                        ,35.625,134.627,0005,009.2,     ,      ,35.625,134.627,0005,2022-10-31,9999-99-99
63051,豊岡　　　　　　　　,ﾄﾖｵｶ           ,TOYO-OKA                      ,豊岡　　　　　　　　,ﾄﾖｵｶ           ,TOYO-OKA                      ,35.535,134.822,0003,016.0,     ,      ,35.535,134.822,0003,2022-10-31,9999-99-99
63071,兎和野高原　　　　　,ｳﾜﾉｺｳｹﾞﾝ       ,UWANOKOGEN                    ,兎和野高原　　　　　,ｳﾜﾉｺｳｹﾞﾝ       ,UWANOKOGEN                    ,35.432,134.583,0540,006.4,     ,      ,35.432,134.583,0540,2022-10-31,9999-99-99
63121,和田山　　　　　　　,ﾜﾀﾞﾔﾏ          ,WADAYAMA                      ,和田山　　　　　　　,ﾜﾀﾞﾔﾏ          ,WADAYAMA                      ,35.323,134.848,0080,009.9,     ,      ,35.323,134.848,0080,2022-10-31,9999-99-99
63201,生野　　　　　　　　,ｲｸﾉ            ,IKUNO                         ,　　　　　　　　　　,               ,                              ,35.167,134.792,0320,010.7,     ,      ,      ,       ,    ,2022-10-31,9999-99-99
63216,柏原　　　　　　　　,ｶｲﾊﾞﾗ          ,KAIBARA                       ,　　　　　　　　　　,               ,                              ,35.137,135.065,0098,010.0,     ,      ,      ,       ,    ,2022-10-31,9999-99-99
63251,一宮　　　　　　　　,ｲﾁﾉﾐﾔ          ,ICHINOMIYA                    ,　　　　　　　　　　,               ,                              ,35.097,134.585,0195,009.9,     ,      ,      ,       ,    ,2022-10-31,9999-99-99
63321,福崎　　　　　　　　,ﾌｸｻｷ           ,FUKUSAKI                      ,　　　　　　　　　　,               ,                              ,34.950,134.748,0072,013.8,     ,      ,      ,       ,    ,2022-10-31,9999-99-99
63331,西脇　　　　　　　　,ﾆｼﾜｷ           ,NISHIWAKI                     ,　　　　　　　　　　,               ,                              ,34.998,134.997,0072,006.4,     ,      ,      ,       ,    ,2022-10-31,9999-99-99
63366,上郡　　　　　　　　,ｶﾐｺﾞｵﾘ         ,KAMIGORI                      ,　　　　　　　　　　,               ,                              ,34.858,134.373,0020,013.1,     ,      ,      ,       ,    ,2022-10-31,9999-99-99
63383,姫路　　　　　　　　,ﾋﾒｼﾞ           ,HIMEJI                        ,　　　　　　　　　　,               ,                              ,34.838,134.670,0038,016.2,     ,      ,      ,       ,    ,2022-10-31,9999-99-99
63411,三田　　　　　　　　,ｻﾝﾀﾞ           ,SANDA                         ,　　　　　　　　　　,               ,                              ,34.895,135.212,0150,021.5,     ,      ,      ,       ,    ,2022-10-31,9999-99-99
63461,三木　　　　　　　　,ﾐｷ             ,MIKI                          ,　　　　　　　　　　,               ,                              ,34.777,135.013,0145,009.9,     ,      ,      ,       ,    ,2022-10-31,9999-99-99
63491,家島　　　　　　　　,ｲｴｼﾏ           ,IESHIMA                       ,　　　　　　　　　　,               ,                              ,34.672,134.527,0088,006.4,     ,      ,      ,       ,    ,2022-10-31,9999-99-99
63496,明石　　　　　　　　,ｱｶｼ            ,AKASHI                        ,　　　　　　　　　　,               ,                              ,34.687,134.877,0003,028.5,     ,      ,      ,       ,    ,2022-10-31,9999-99-99
63518,神戸　　　　　　　　,ｺｳﾍﾞ           ,KOBE                          ,神戸　　　　　　　　,ｺｳﾍﾞ           ,KOBE                          ,34.697,135.212,0005,016.0,     ,      ,34.697,135.212,0005,2022-10-31,9999-99-99
63551,郡家　　　　　　　　,ｸﾞﾝｹﾞ          ,GUNGE                         ,　　　　　　　　　　,               ,                              ,34.467,134.848,0005,009.2,     ,      ,      ,       ,    ,2022-10-31,9999-99-99
63571,洲本　　　　　　　　,ｽﾓﾄ            ,SUMOTO                        ,　　　　　　　　　　,               ,                              ,34.310,134.848,0069,014.6,     ,      ,      ,       ,    ,2022-10-31,9999-99-99
63588,南淡　　　　　　　　,ﾅﾝﾀﾞﾝ          ,NANDAN                        ,　　　　　　　　　　,               ,                              ,34.218,134.720,0005,009.5,     ,      ,      ,       ,    ,2022-10-31,9999-99-99
64036,奈良　　　　　　　　,ﾅﾗ             ,NARA                          ,奈良　　　　　　　　,ﾅﾗ             ,NARA                          ,34.673,135.837,0102,020.1,     ,      ,34.673,135.837,0102,2022-10-31,9999-99-99
64041,針　　　　　　　　　,ﾊﾘ             ,HARI                          ,　　　　　　　　　　,               ,                              ,34.605,135.952,0468,009.9,     ,      ,      ,       ,    ,2022-10-31,9999-99-99
64101,大宇陀　　　　　　　,ｵｵｳﾀﾞ          ,OUDA                          ,　　　　　　　　　　,               ,                              ,34.488,135.932,0349,009.9,     ,      ,      ,       ,    ,2022-10-31,9999-99-99
64127,五條　　　　　　　　,ｺﾞｼﾞｮｳ         ,GOJO                          ,　　　　　　　　　　,               ,                              ,34.380,135.730,0190,009.4,     ,      ,      ,       ,    ,2022-10-31,9999-99-99
64206,上北山　　　　　　　,ｶﾐｷﾀﾔﾏ         ,KAMIKITAYAMA                  ,　　　　　　　　　　,               ,                              ,34.137,136.005,0334,009.9,     ,      ,      ,       ,    ,2022-10-31,9999-99-99
64227,風屋　　　　　　　　,ｶｾﾞﾔ           ,KAZEYA                        ,　　　　　　　　　　,               ,                              ,34.045,135.787,0301,006.4,     ,      ,      ,       ,    ,2022-10-31,9999-99-99
65026,かつらぎ　　　　　　,ｶﾂﾗｷﾞ          ,KATSURAGI                     ,　　　　　　　　　　,               ,                              ,34.310,135.528,0142,009.3,     ,      ,      ,       ,    ,2022-10-31,9999-99-99
65036,友ケ島　　　　　　　,ﾄﾓｶﾞｼﾏ         ,TOMOGASHIMA                   ,　　　　　　　　　　,               ,                              ,34.280,134.998,0044,009.3,     ,      ,      ,       ,    ,2022-10-31,9999-99-99
65042,和歌山　　　　　　　,ﾜｶﾔﾏ           ,WAKAYAMA                      ,和歌山　　　　　　　,ﾜｶﾔﾏ           ,WAKAYAMA                      ,34.228,135.163,0014,042.1,     ,      ,34.228,135.163,0014,2022-10-31,9999-99-99
65061,高野山　　　　　　　,ｺｳﾔｻﾝ          ,KOYASAN                       ,　　　　　　　　　　,               ,                              ,34.222,135.590,0801,012.9,     ,      ,      ,       ,    ,2022-10-31,9999-99-99
65121,清水　　　　　　　　,ｼﾐｽﾞ           ,SHIMIZU                       ,　　　　　　　　　　,               ,                              ,34.087,135.425,0240,006.4,     ,      ,      ,       ,    ,2022-10-31,9999-99-99
65162,龍神　　　　　　　　,ﾘｭｳｼﾞﾝ         ,RYUJIN                        ,　　　　　　　　　　,               ,                              ,33.945,135.557,0410,006.4,     ,      ,      ,       ,    ,2022-10-31,9999-99-99
65201,川辺　　　　　　　　,ｶﾜﾍﾞ           ,KAWABE                        ,　　　　　　　　　　,               ,                              ,33.893,135.217,0084,009.3,     ,      ,      ,       ,    ,2022-10-31,9999-99-99
65256,栗栖川　　　　　　　,ｸﾘｽｶﾞﾜ         ,KURISUGAWA                    ,　　　　　　　　　　,               ,                              ,33.792,135.513,0160,009.9,     ,      ,      ,       ,    ,2022-10-31,9999-99-99
65276,新宮　　　　　　　　,ｼﾝｸﾞｳ          ,SHINGU                        ,　　　　　　　　　　,               ,                              ,33.687,135.970,0018,009.3,     ,      ,      ,       ,    ,2022-10-31,9999-99-99
65306,西川　　　　　　　　,ﾆｼｶﾜ           ,NISHIKAWA                     ,　　　　　　　　　　,               ,                              ,33.638,135.710,0150,009.9,     ,      ,      ,       ,    ,2022-10-31,9999-99-99
65356,潮岬　　　　　　　　,ｼｵﾉﾐｻｷ         ,SHIONOMISAKI                  ,　　　　　　　　　　,               ,                              ,33.450,135.757,0068,014.9,     ,      ,      ,       ,    ,2022-10-31,9999-99-99
66046,上長田　　　　　　　,ｶﾐﾅｶﾞﾀ         ,KAMINAGATA                    ,上長田　　　　　　　,ｶﾐﾅｶﾞﾀ         ,KAMINAGATA                    ,35.297,133.725,0430,006.4,     ,      ,35.297,133.725,0430,2022-10-31,9999-99-99
66091,千屋　　　　　　　　,ﾁﾔ             ,CHIYA                         ,千屋　　　　　　　　,ﾁﾔ             ,CHIYA                         ,35.103,133.435,0525,009.9,     ,      ,35.103,133.435,0525,2022-10-31,9999-99-99
66127,奈義　　　　　　　　,ﾅｷﾞ            ,NAGI                          ,　　　　　　　　　　,               ,                              ,35.112,134.170,0212,006.4,     ,      ,      ,       ,    ,2022-10-31,9999-99-99
66136,今岡　　　　　　　　,ｲﾏｵｶ           ,IMAOKA                        ,今岡　　　　　　　　,ｲﾏｵｶ           ,IMAOKA                        ,35.098,134.325,0207,006.4,     ,      ,35.098,134.325,0207,2022-10-31,9999-99-99
66171,久世　　　　　　　　,ｸｾ             ,KUSE                          ,　　　　　　　　　　,               ,                              ,35.068,133.753,0144,009.9,     ,      ,      ,       ,    ,2022-10-31,9999-99-99
66186,津山　　　　　　　　,ﾂﾔﾏ            ,TSUYAMA                       ,津山　　　　　　　　,ﾂﾔﾏ            ,TSUYAMA                       ,35.063,134.008,0146,012.4,     ,      ,35.063,134.008,0146,2022-10-31,9999-99-99
66221,新見　　　　　　　　,ﾆｲﾐ            ,NIIMI                         ,　　　　　　　　　　,               ,                              ,34.943,133.518,0393,009.9,     ,      ,      ,       ,    ,2022-10-31,9999-99-99
66296,福渡　　　　　　　　,ﾌｸﾜﾀﾘ          ,FUKUWATARI                    ,　　　　　　　　　　,               ,                              ,34.867,133.903,0063,007.8,     ,      ,      ,       ,    ,2022-10-31,9999-99-99
66306,和気　　　　　　　　,ﾜｹ             ,WAKE                          ,　　　　　　　　　　,               ,                              ,34.815,134.183,0035,009.9,     ,      ,      ,       ,    ,2022-10-31,9999-99-99
66336,高梁　　　　　　　　,ﾀｶﾊｼ           ,TAKAHASHI                     ,　　　　　　　　　　,               ,                              ,34.792,133.610,0060,009.9,     ,      ,      ,       ,    ,2022-10-31,9999-99-99
66408,岡山　　　　　　　　,ｵｶﾔﾏ           ,OKAYAMA                       ,岡山　　　　　　　　,ｵｶﾔﾏ           ,OKAYAMA                       ,34.685,133.925,0005,070.1,     ,      ,34.685,133.925,0005,2022-10-31,9999-99-99
66421,虫明　　　　　　　　,ﾑｼｱｹﾞ          ,MUSHIAGE                      ,　　　　　　　　　　,               ,                              ,34.682,134.207,0010,009.9,     ,      ,      ,       ,    ,2022-10-31,9999-99-99
66446,倉敷　　　　　　　　,ｸﾗｼｷ           ,KURASHIKI                     ,　　　　　　　　　　,               ,                              ,34.590,133.768,0003,009.9,     ,      ,      ,       ,    ,2022-10-31,9999-99-99
66481,笠岡　　　　　　　　,ｶｻｵｶ           ,KASAOKA                       ,　　　　　　　　　　,               ,                              ,34.502,133.495,0000,006.4,     ,      ,      ,       ,    ,2022-10-31,9999-99-99
66501,玉野　　　　　　　　,ﾀﾏﾉ            ,TAMANO                        ,　　　　　　　　　　,               ,                              ,34.487,133.950,0002,006.4,     ,      ,      ,       ,    ,2022-10-31,9999-99-99
67016,高野　　　　　　　　,ﾀｶﾉ            ,TAKANO                        ,高野　　　　　　　　,ﾀｶﾉ            ,TAKANO                        ,35.033,132.902,0570,010.0,     ,      ,35.033,132.902,0570,2022-10-31,9999-99-99
67106,三次　　　　　　　　,ﾐﾖｼ            ,MIYOSHI                       ,　　　　　　　　　　,               ,                              ,34.812,132.850,0159,009.9,     ,      ,      ,       ,    ,2022-10-31,9999-99-99
67116,庄原　　　　　　　　,ｼｮｳﾊﾞﾗ         ,SHOBARA                       ,　　　　　　　　　　,               ,                              ,34.860,133.023,0300,010.5,     ,      ,      ,       ,    ,2022-10-31,9999-99-99
67151,大朝　　　　　　　　,ｵｵｱｻ           ,OASA                          ,大朝　　　　　　　　,ｵｵｱｻ           ,OASA                          ,34.768,132.463,0399,009.9,     ,      ,34.768,132.463,0399,2022-10-31,9999-99-99
67191,油木　　　　　　　　,ﾕｷ             ,YUKI                          ,　　　　　　　　　　,               ,                              ,34.763,133.278,0510,009.9,     ,      ,      ,       ,    ,2022-10-31,9999-99-99
67212,加計　　　　　　　　,ｶｹ             ,KAKE                          ,　　　　　　　　　　,               ,                              ,34.610,132.320,0210,009.9,     ,      ,      ,       ,    ,2022-10-31,9999-99-99
67292,三入　　　　　　　　,ﾐｲﾘ            ,MIIRI                         ,　　　　　　　　　　,               ,                              ,34.545,132.530,0070,006.3,     ,      ,      ,       ,    ,2022-10-31,9999-99-99
67316,世羅　　　　　　　　,ｾﾗ             ,SERA                          ,　　　　　　　　　　,               ,                              ,34.583,133.050,0350,007.9,     ,      ,      ,       ,    ,2022-10-31,9999-99-99
67326,府中　　　　　　　　,ﾌﾁｭｳ           ,FUCHU                         ,　　　　　　　　　　,               ,                              ,34.562,133.232,0070,009.4,     ,      ,      ,       ,    ,2022-10-31,9999-99-99
67376,東広島　　　　　　　,ﾋｶﾞｼﾋﾛｼﾏ       ,HIGASHI-HIROSHIMA             ,　　　　　　　　　　,               ,                              ,34.417,132.700,0224,009.9,     ,      ,      ,       ,    ,2022-10-31,9999-99-99
67401,福山　　　　　　　　,ﾌｸﾔﾏ           ,FUKUYAMA                      ,　　　　　　　　　　,               ,                              ,34.447,133.247,0002,014.4,     ,      ,      ,       ,    ,2022-10-31,9999-99-99
67421,廿日市津田　　　　　,ﾊﾂｶｲﾁﾂﾀ        ,HATSUKAICHI-TSUTA             ,　　　　　　　　　　,               ,                              ,34.365,132.190,0317,009.9,     ,      ,      ,       ,    ,2022-10-31,9999-99-99
67437,広島　　　　　　　　,ﾋﾛｼﾏ           ,HIROSHIMA                     ,広島　　　　　　　　,ﾋﾛｼﾏ           ,HIROSHIMA                     ,34.398,132.462,0004,095.4,     ,      ,34.398,132.462,0004,2022-10-31,9999-99-99
67461,竹原　　　　　　　　,ﾀｹﾊﾗ           ,TAKEHARA                      ,　　　　　　　　　　,               ,                              ,34.330,132.982,0005,009.9,     ,      ,      ,       ,    ,2022-10-31,9999-99-99
67471,生口島　　　　　　　,ｲｸﾁｼﾞﾏ         ,IKUCHIJIMA                    ,　　　　　　　　　　,               ,                              ,34.278,133.123,0003,009.9,     ,      ,      ,       ,    ,2022-10-31,9999-99-99
67496,大竹　　　　　　　　,ｵｵﾀｹ           ,OTAKE                         ,　　　　　　　　　　,               ,                              ,34.222,132.220,0001,025.0,     ,      ,      ,       ,    ,2022-10-31,9999-99-99
67511,呉　　　　　　　　　,ｸﾚ             ,KURE                          ,　　　　　　　　　　,               ,                              ,34.240,132.550,0004,027.3,     ,      ,      ,       ,    ,2022-10-31,9999-99-99
67576,呉市蒲刈　　　　　　,ｸﾚｼｶﾏｶﾞﾘ       ,KURE-SHI-KAMAGARI             ,　　　　　　　　　　,               ,                              ,34.165,132.748,0048,009.9,     ,      ,      ,       ,    ,2022-10-31,9999-99-99
68022,西郷　　　　　　　　,ｻｲｺﾞｳ          ,SAIGO                         ,西郷　　　　　　　　,ｻｲｺﾞｳ          ,SAIGO                         ,36.203,133.333,0027,017.0,     ,      ,36.203,133.333,0027,2022-10-31,9999-99-99
